[
  {
    "name": "Sibuya Urban Sushi Bar Huelva",
    "topic": "Japanese, Sushi",
    "rating": 4.7,
    "city": "Huelva",
    "address": "Sibuya Urban Sushi Bar Huelva, Huelva, Andalusia, Spain",
    "coordinates": {
      "lat": 37.265583,
      "lon": -6.95895
    },
    "lat": 37.265583,
    "lon": -6.95895
  },
  {
    "name": "Azabache",
    "topic": "Mediterranean, European",
    "rating": 4.5,
    "city": "Huelva",
    "address": "Bar Restaurante Azabache, Calle Vázquez López, Huelva, Comarca Metropolitana de Huelva, Huelva, Andalucía, 21001",
    "lat": 37.254651,
    "lon": -6.953004,
    "coordinates": {
      "lat": 37.254651,
      "lon": -6.953004
    }
  },
  {
    "name": "Bar Taberna Er Chiclanero",
    "topic": "Bar, Seafood",
    "rating": 4.7,
    "city": "Huelva",
    "address": "Bar Taberna Er Chiclanero, Huelva, Andalusia, Spain",
    "coordinates": {
      "lat": 37.268494,
      "lon": -6.939399
    },
    "lat": 37.268494,
    "lon": -6.939399
  },
  {
    "name": "Masero",
    "topic": "Mediterranean, Spanish",
    "rating": 4.7,
    "city": "Huelva",
    "address": "Cueva Masero, Camino del Rincón, Fuentes de León, Sierra de Huelva, Badajoz, Extremadura",
    "lat": 37.273165,
    "lon": -6.957092,
    "coordinates": {
      "lat": 37.273165,
      "lon": -6.957092
    }
  },
  {
    "name": "La Florida",
    "topic": "Spanish, Healthy",
    "rating": 4.7,
    "city": "Huelva",
    "address": "La Florida, Valverde del Camino, El Andévalo, Huelva, Andalucía",
    "lat": 37.259058,
    "lon": -6.958806,
    "coordinates": {
      "lat": 37.259058,
      "lon": -6.958806
    }
  },
  {
    "name": "Buena Vida Huelva",
    "topic": "Mediterranean, Spanish",
    "rating": 4.7,
    "city": "Huelva",
    "address": "Buena Vida Huelva, Huelva, Andalusia, Spain",
    "coordinates": {
      "lat": 37.252959,
      "lon": -6.944539
    },
    "lat": 37.252959,
    "lon": -6.944539
  },
  {
    "name": "Mar de Altura",
    "topic": "Mediterranean, Spanish",
    "rating": 4.6,
    "city": "Huelva",
    "address": "Mar de Altura, Huelva, Andalusia, Spain",
    "coordinates": {
      "lat": 37.247196,
      "lon": -6.953735
    },
    "lat": 37.247196,
    "lon": -6.953735
  },
  {
    "name": "Bar Restaurante Juan Jose",
    "topic": "Mediterranean, Spanish",
    "rating": 4.3,
    "city": "Huelva",
    "address": "Bar Restaurante Juan Jose, Huelva, Andalusia, Spain",
    "coordinates": {
      "lat": 37.265897,
      "lon": -6.943352
    },
    "lat": 37.265897,
    "lon": -6.943352
  },
  {
    "name": "Empanadas Malvón Huelva",
    "topic": "Fast Food, Argentinean",
    "rating": 4.9,
    "city": "Huelva",
    "address": "Malvón, Calle Arquitecto Pérez Carasa, Huelva, Comarca Metropolitana de Huelva, Huelva, Andalucía, 21003",
    "lat": 37.253013,
    "lon": -6.942022,
    "coordinates": {
      "lat": 37.253013,
      "lon": -6.942022
    }
  },
  {
    "name": "Bar Pappis",
    "topic": "Mediterranean, Spanish",
    "rating": 4.5,
    "city": "Huelva",
    "address": "Bar Pappis, Huelva, Andalusia, Spain",
    "coordinates": {
      "lat": 37.270683,
      "lon": -6.959505
    },
    "lat": 37.270683,
    "lon": -6.959505
  },
  {
    "name": "Gastrobar Cosas Buenas",
    "topic": "Mediterranean, European",
    "rating": 4.7,
    "city": "Huelva",
    "address": "Gastrobar Cosas Buenas, Huelva, Andalusia, Spain",
    "coordinates": {
      "lat": 37.270575,
      "lon": -6.938756
    },
    "lat": 37.270575,
    "lon": -6.938756
  },
  {
    "name": "La Florida Centro",
    "topic": "Mediterranean, Spanish",
    "rating": 4.9,
    "city": "Huelva",
    "address": "La Florida Centro, Huelva, Andalusia, Spain",
    "coordinates": {
      "lat": 37.256608,
      "lon": -6.955036
    },
    "lat": 37.256608,
    "lon": -6.955036
  },
  {
    "name": "kalaka vinos y tapas",
    "topic": "Mediterranean, European",
    "rating": 4.2,
    "city": "Huelva",
    "address": "kalaka vinos y tapas, Huelva, Andalusia, Spain",
    "coordinates": {
      "lat": 37.275116,
      "lon": -6.949602
    },
    "lat": 37.275116,
    "lon": -6.949602
  },
  {
    "name": "Bar Taperia Entre Amigos",
    "topic": "Bar, Mediterranean",
    "rating": 4.4,
    "city": "Huelva",
    "address": "Bar Taperia Entre Amigos, Huelva, Andalusia, Spain",
    "coordinates": {
      "lat": 37.249182,
      "lon": -6.956799
    },
    "lat": 37.249182,
    "lon": -6.956799
  },
  {
    "name": "Pura Huelva",
    "topic": "Seafood, Mediterranean",
    "rating": 4.6,
    "city": "Huelva",
    "address": "Playa de Santa Pura, Lepe, Costa Occidental, Huelva, Andalucía",
    "lat": 37.271825,
    "lon": -6.941588,
    "coordinates": {
      "lat": 37.271825,
      "lon": -6.941588
    }
  },
  {
    "name": "El Portichuelo",
    "topic": "Mediterranean, European",
    "rating": 4.0,
    "city": "Huelva",
    "address": "El Portichuelo, Huelva, Andalusia, Spain",
    "coordinates": {
      "lat": 37.270614,
      "lon": -6.937808
    },
    "lat": 37.270614,
    "lon": -6.937808
  },
  {
    "name": "Restaurante La Fonda De María Mandao",
    "topic": "Mediterranean, European",
    "rating": 4.3,
    "city": "Huelva",
    "address": "Restaurante La Fonda De María Mandao, Huelva, Andalusia, Spain",
    "coordinates": {
      "lat": 37.262487,
      "lon": -6.930507
    },
    "lat": 37.262487,
    "lon": -6.930507
  },
  {
    "name": "Noviembre Tapas y Vinos",
    "topic": "Mediterranean, European",
    "rating": 4.3,
    "city": "Huelva",
    "address": "Noviembre Tapas y Vinos, Huelva, Andalusia, Spain",
    "coordinates": {
      "lat": 37.257756,
      "lon": -6.943139
    },
    "lat": 37.257756,
    "lon": -6.943139
  },
  {
    "name": "La Tribu",
    "topic": "Cafe, Mediterranean",
    "rating": 4.5,
    "city": "Huelva",
    "address": "La Tribu, Avenida Alcalde Pedro Rodríguez González, Huelva, Comarca Metropolitana de Huelva, Huelva, Andalucía, 21005",
    "lat": 37.271282,
    "lon": -6.941144,
    "coordinates": {
      "lat": 37.271282,
      "lon": -6.941144
    }
  },
  {
    "name": "La Teja",
    "topic": "Mediterranean, Spanish",
    "rating": 4.1,
    "city": "Huelva",
    "address": "La Teja, Almonte, El Condado, Huelva, Andalucía",
    "lat": 37.272251,
    "lon": -6.942379,
    "coordinates": {
      "lat": 37.272251,
      "lon": -6.942379
    }
  },
  {
    "name": "Bar los Maestres",
    "topic": "Bars & Pubs, Seafood",
    "rating": 4.7,
    "city": "Huelva",
    "address": "Bar Los Maestres, Avenida de Italia, Huelva, Comarca Metropolitana de Huelva, Huelva, Andalucía, 21002",
    "lat": 37.267537,
    "lon": -6.958325,
    "coordinates": {
      "lat": 37.267537,
      "lon": -6.958325
    }
  },
  {
    "name": "Parábola Restaurante",
    "topic": "Brew Pub, International",
    "rating": 4.8,
    "city": "Huelva",
    "address": "Parábola Restaurante, Huelva, Andalusia, Spain",
    "coordinates": {
      "lat": 37.253237,
      "lon": -6.951018
    },
    "lat": 37.253237,
    "lon": -6.951018
  },
  {
    "name": "Coma Tapas&Punto",
    "topic": "Mediterranean, Spanish",
    "rating": 4.4,
    "city": "Huelva",
    "address": "Tapas&Punto Coma, Calle Pablo Rada, Huelva, Comarca Metropolitana de Huelva, Huelva, Andalucía, 21003",
    "lat": 37.248794,
    "lon": -6.952716,
    "coordinates": {
      "lat": 37.248794,
      "lon": -6.952716
    }
  },
  {
    "name": "Restaurante Gran Vía Uno",
    "topic": "Mediterranean, Spanish",
    "rating": 4.2,
    "city": "Huelva",
    "address": "Gran Vía Uno, 1, Avenida de Martín Alonso Pinzón, Huelva, Comarca Metropolitana de Huelva, Huelva, Andalucía, 21003",
    "lat": 37.24943,
    "lon": -6.951361,
    "coordinates": {
      "lat": 37.24943,
      "lon": -6.951361
    }
  },
  {
    "name": "Albero Gastro y Folklore",
    "topic": "Mediterranean, Spanish",
    "rating": 4.3,
    "city": "Huelva",
    "address": "Albero Gastro y Folklore, Huelva, Andalusia, Spain",
    "coordinates": {
      "lat": 37.265471,
      "lon": -6.948755
    },
    "lat": 37.265471,
    "lon": -6.948755
  },
  {
    "name": "La Bohemia",
    "topic": "Mediterranean, European",
    "rating": 4.1,
    "city": "Huelva",
    "address": "La Bohemia, Huelva, Andalusia, Spain",
    "coordinates": {
      "lat": 37.257505,
      "lon": -6.953415
    },
    "lat": 37.257505,
    "lon": -6.953415
  },
  {
    "name": "Bar Casa Manuela",
    "topic": "Mediterranean, Spanish",
    "rating": 4.5,
    "city": "Huelva",
    "address": "Bar Casa Manuela, Huelva, Andalusia, Spain",
    "coordinates": {
      "lat": 37.254409,
      "lon": -6.9316
    },
    "lat": 37.254409,
    "lon": -6.9316
  },
  {
    "name": "Las Meigas",
    "topic": "Japanese, Mediterranean",
    "rating": 4.4,
    "city": "Huelva",
    "address": "Las Meigas, Huelva, Andalusia, Spain",
    "coordinates": {
      "lat": 37.265841,
      "lon": -6.941426
    },
    "lat": 37.265841,
    "lon": -6.941426
  },
  {
    "name": "Restaurante Macha",
    "topic": "Seafood, Mediterranean",
    "rating": 4.0,
    "city": "Huelva",
    "address": "La Macha, Plaza de Bajamar, La Antilla, Lepe, Costa Occidental, Huelva, Andalucía, 21449",
    "lat": 37.251534,
    "lon": -6.937826,
    "coordinates": {
      "lat": 37.251534,
      "lon": -6.937826
    }
  },
  {
    "name": "Charlotte Huelva",
    "topic": "Mediterranean, Spanish",
    "rating": 4.0,
    "city": "Huelva",
    "address": "Charlotte Huelva, Huelva, Andalusia, Spain",
    "coordinates": {
      "lat": 37.251302,
      "lon": -6.948316
    },
    "lat": 37.251302,
    "lon": -6.948316
  },
  {
    "name": "Amor Amar Puerto",
    "topic": "Mediterranean, Spanish",
    "rating": 4.4,
    "city": "Huelva",
    "address": "Amor Amar Puerto, Huelva, Andalusia, Spain",
    "coordinates": {
      "lat": 37.276086,
      "lon": -6.9405
    },
    "lat": 37.276086,
    "lon": -6.9405
  },
  {
    "name": "Bar Jerez",
    "topic": "Mediterranean, European",
    "rating": 4.7,
    "city": "Huelva",
    "address": "Bar Jerez, Huelva, Andalusia, Spain",
    "coordinates": {
      "lat": 37.263108,
      "lon": -6.939162
    },
    "lat": 37.263108,
    "lon": -6.939162
  },
  {
    "name": "Restaurante Don Quijote",
    "topic": "Mediterranean, Spanish",
    "rating": 4.2,
    "city": "Huelva",
    "address": "Restaurante Don Quijote, Huelva, Andalusia, Spain",
    "coordinates": {
      "lat": 37.271686,
      "lon": -6.93642
    },
    "lat": 37.271686,
    "lon": -6.93642
  },
  {
    "name": "Bar Paco Moreno",
    "topic": "Seafood, Spanish",
    "rating": 4.0,
    "city": "Huelva",
    "address": "Bar Paco Moreno, Huelva, Andalusia, Spain",
    "coordinates": {
      "lat": 37.253271,
      "lon": -6.958737
    },
    "lat": 37.253271,
    "lon": -6.958737
  },
  {
    "name": "Royal Tandoori Indian Restaurant",
    "topic": "Indian, Healthy",
    "rating": 4.7,
    "city": "Huelva",
    "address": "Royal Tandoori Indian Restaurant, Huelva, Andalusia, Spain",
    "coordinates": {
      "lat": 37.255864,
      "lon": -6.951668
    },
    "lat": 37.255864,
    "lon": -6.951668
  },
  {
    "name": "Cerveceria El Gallo Negro",
    "topic": "Mediterranean, Spanish",
    "rating": 4.4,
    "city": "Huelva",
    "address": "Cervecería El Gallo Negro, Plaza de Quintero Báez, Huelva, Comarca Metropolitana de Huelva, Huelva, Andalucía, 21003",
    "lat": 37.252729,
    "lon": -6.931413,
    "coordinates": {
      "lat": 37.252729,
      "lon": -6.931413
    }
  },
  {
    "name": "Rocataliata",
    "topic": "Mediterranean, Spanish",
    "rating": 4.1,
    "city": "Huelva",
    "address": "Rocataliata, 44, Calle Rico, Huelva, Comarca Metropolitana de Huelva, Huelva, Andalucía, 21003",
    "lat": 37.272691,
    "lon": -6.95026,
    "coordinates": {
      "lat": 37.272691,
      "lon": -6.95026
    }
  },
  {
    "name": "Bar La Estrella",
    "topic": "Mediterranean, Spanish",
    "rating": 4.4,
    "city": "Huelva",
    "address": "Bar La Estrella, Calle Méndez Núñez, Huelva, Comarca Metropolitana de Huelva, Huelva, Andalucía, 21003",
    "lat": 37.266063,
    "lon": -6.947831,
    "coordinates": {
      "lat": 37.266063,
      "lon": -6.947831
    }
  },
  {
    "name": "El Rinconcito Huelva",
    "topic": "Mediterranean, European",
    "rating": 4.0,
    "city": "Huelva",
    "address": "El Rinconcito, Calle Padre Marchena, Huelva, Comarca Metropolitana de Huelva, Huelva, Andalucía, 21003",
    "lat": 37.273836,
    "lon": -6.945934,
    "coordinates": {
      "lat": 37.273836,
      "lon": -6.945934
    }
  },
  {
    "name": "El Rincon De Ana",
    "topic": "Bars & Pubs, Spanish",
    "rating": 4.7,
    "city": "Huelva",
    "address": "El Rincon De Ana, Huelva, Andalusia, Spain",
    "coordinates": {
      "lat": 37.254346,
      "lon": -6.952301
    },
    "lat": 37.254346,
    "lon": -6.952301
  },
  {
    "name": "El Rincon de La Rocina",
    "topic": "Mediterranean",
    "rating": 4.0,
    "city": "Huelva",
    "address": "El Rincon de La Rocina, Huelva, Andalusia, Spain",
    "coordinates": {
      "lat": 37.263241,
      "lon": -6.951818
    },
    "lat": 37.263241,
    "lon": -6.951818
  },
  {
    "name": "Pika Pika Tapas",
    "topic": "Mediterranean, Spanish",
    "rating": 4.3,
    "city": "Huelva",
    "address": "Pika Pika Tapas, Huelva, Andalusia, Spain",
    "coordinates": {
      "lat": 37.263938,
      "lon": -6.932765
    },
    "lat": 37.263938,
    "lon": -6.932765
  },
  {
    "name": "Nómada Gran Vía",
    "topic": "Italian, Fusion",
    "rating": 4.5,
    "city": "Huelva",
    "address": "Nómada Gran Vía, Huelva, Andalusia, Spain",
    "coordinates": {
      "lat": 37.258382,
      "lon": -6.95312
    },
    "lat": 37.258382,
    "lon": -6.95312
  },
  {
    "name": "Bar Eclipse",
    "topic": "Mediterranean, Spanish",
    "rating": 4.4,
    "city": "Huelva",
    "address": "Bar Eclipse, Huelva, Andalusia, Spain",
    "coordinates": {
      "lat": 37.276326,
      "lon": -6.944414
    },
    "lat": 37.276326,
    "lon": -6.944414
  },
  {
    "name": "Smoker barbacoa",
    "topic": "Barbecue",
    "rating": 5.0,
    "city": "Huelva",
    "address": "Smoker barbacoa, Huelva, Andalusia, Spain",
    "coordinates": {
      "lat": 37.249127,
      "lon": -6.958287
    },
    "lat": 37.249127,
    "lon": -6.958287
  },
  {
    "name": "Taberna El Condado",
    "topic": "Mediterranean, Spanish",
    "rating": 4.0,
    "city": "Huelva",
    "address": "Taberna de Manuela, Paseo Marismeño, El Rocío, Almonte, El Condado, Huelva, Andalucía, 21750",
    "lat": 37.249689,
    "lon": -6.940877,
    "coordinates": {
      "lat": 37.249689,
      "lon": -6.940877
    }
  },
  {
    "name": "Restaurante Pizzeria Damichi",
    "topic": "Italian, Pizza",
    "rating": 4.0,
    "city": "Huelva",
    "address": "Restaurante Pizzeria Damichi, Huelva, Andalusia, Spain",
    "coordinates": {
      "lat": 37.270162,
      "lon": -6.947035
    },
    "lat": 37.270162,
    "lon": -6.947035
  },
  {
    "name": "Bodega Madreana",
    "topic": "Mediterranean, Spanish",
    "rating": 4.3,
    "city": "Huelva",
    "address": "Bodega Madreana, Plaza de la Virgen del Refugio, Huelva, Comarca Metropolitana de Huelva, Huelva, Andalucía, 21003",
    "lat": 37.248306,
    "lon": -6.948251,
    "coordinates": {
      "lat": 37.248306,
      "lon": -6.948251
    }
  },
  {
    "name": "La Tagliatella Huelva",
    "topic": "Italian, Mediterranean",
    "rating": 4.8,
    "city": "Huelva",
    "address": "La Tagliatella Huelva, Huelva, Andalusia, Spain",
    "coordinates": {
      "lat": 37.276284,
      "lon": -6.943827
    },
    "lat": 37.276284,
    "lon": -6.943827
  },
  {
    "name": "Armaxokera",
    "topic": "Mediterranean, Spanish",
    "rating": 4.1,
    "city": "Huelva",
    "address": "Armaxokera, Huelva, Andalusia, Spain",
    "coordinates": {
      "lat": 37.275532,
      "lon": -6.933877
    },
    "lat": 37.275532,
    "lon": -6.933877
  },
  {
    "name": "Marijata",
    "topic": "Mediterranean, Spanish",
    "rating": 4.4,
    "city": "Huelva",
    "address": "Marijata, Nuevo Portil, Cartaya, Costa Occidental, Huelva, Andalucía, 21459",
    "lat": 37.246744,
    "lon": -6.938078,
    "coordinates": {
      "lat": 37.246744,
      "lon": -6.938078
    }
  },
  {
    "name": "El Camilo de la Merced",
    "topic": "Italian, Pizza",
    "rating": 4.0,
    "city": "Huelva",
    "address": "El Camilo de la Merced, Huelva, Andalusia, Spain",
    "coordinates": {
      "lat": 37.266851,
      "lon": -6.943591
    },
    "lat": 37.266851,
    "lon": -6.943591
  },
  {
    "name": "Restaurante Galería Como En Casa",
    "topic": "European, Spanish",
    "rating": 4.5,
    "city": "Huelva",
    "address": "Restaurante Galería Como En Casa, Huelva, Andalusia, Spain",
    "coordinates": {
      "lat": 37.254405,
      "lon": -6.940471
    },
    "lat": 37.254405,
    "lon": -6.940471
  },
  {
    "name": "Gastrobar Costa de la Luz",
    "topic": "Mediterranean, Spanish",
    "rating": 4.7,
    "city": "Huelva",
    "address": "Gastrobar Costa de la Luz, Huelva, Andalusia, Spain",
    "coordinates": {
      "lat": 37.249747,
      "lon": -6.946657
    },
    "lat": 37.249747,
    "lon": -6.946657
  },
  {
    "name": "Noodlemania Urban Food",
    "topic": "Japanese, Fast Food",
    "rating": 4.2,
    "city": "Huelva",
    "address": "Noodlemania Urban Food, Huelva, Andalusia, Spain",
    "coordinates": {
      "lat": 37.260012,
      "lon": -6.931086
    },
    "lat": 37.260012,
    "lon": -6.931086
  },
  {
    "name": "La Carmelina",
    "topic": "Mediterranean, Spanish",
    "rating": 4.5,
    "city": "Huelva",
    "address": "La Carmelina, Huelva, Andalusia, Spain",
    "coordinates": {
      "lat": 37.272676,
      "lon": -6.951798
    },
    "lat": 37.272676,
    "lon": -6.951798
  },
  {
    "name": "Restaurante El Palangre",
    "topic": "International, Mediterranean",
    "rating": 3.9,
    "city": "Huelva",
    "address": "Restaurante El Palangre, Huelva, Andalusia, Spain",
    "coordinates": {
      "lat": 37.261418,
      "lon": -6.95434
    },
    "lat": 37.261418,
    "lon": -6.95434
  },
  {
    "name": "Bar La Paloma",
    "topic": "Mediterranean, Spanish",
    "rating": 4.4,
    "city": "Huelva",
    "address": "Bar La Paloma, Huelva, Andalusia, Spain",
    "coordinates": {
      "lat": 37.273779,
      "lon": -6.933584
    },
    "lat": 37.273779,
    "lon": -6.933584
  },
  {
    "name": "El Tercer Tiempo",
    "topic": "Brew Pub, International",
    "rating": 4.5,
    "city": "Huelva",
    "address": "El Tercer Tiempo, Huelva, Andalusia, Spain",
    "coordinates": {
      "lat": 37.255353,
      "lon": -6.940532
    },
    "lat": 37.255353,
    "lon": -6.940532
  },
  {
    "name": "Lemon Tree Gastrobar",
    "topic": "American, Mediterranean",
    "rating": 4.6,
    "city": "Huelva",
    "address": "Lemon Tree Gastrobar, Huelva, Andalusia, Spain",
    "coordinates": {
      "lat": 37.264669,
      "lon": -6.955115
    },
    "lat": 37.264669,
    "lon": -6.955115
  },
  {
    "name": "Pizzería La Favorita",
    "topic": "Italian, Pizza",
    "rating": 4.0,
    "city": "Huelva",
    "address": "Pizzería La Favorita, Huelva, Andalusia, Spain",
    "coordinates": {
      "lat": 37.269275,
      "lon": -6.943519
    },
    "lat": 37.269275,
    "lon": -6.943519
  },
  {
    "name": "La Traviesa Food&Cocktail Huelva",
    "topic": "Mediterranean, Spanish",
    "rating": 4.3,
    "city": "Huelva",
    "address": "La Traviesa Food&Cocktail Huelva, Huelva, Andalusia, Spain",
    "coordinates": {
      "lat": 37.269759,
      "lon": -6.943789
    },
    "lat": 37.269759,
    "lon": -6.943789
  },
  {
    "name": "Burguer Hermanos Rodríguez",
    "topic": "American, German",
    "rating": 4.0,
    "city": "Huelva",
    "address": "Burguer Hermanos Rodríguez, Huelva, Andalusia, Spain",
    "coordinates": {
      "lat": 37.246417,
      "lon": -6.949975
    },
    "lat": 37.246417,
    "lon": -6.949975
  },
  {
    "name": "Casa Aconde",
    "topic": "European, Spanish",
    "rating": 4.2,
    "city": "Huelva",
    "address": "Casa Aconde, Huelva, Andalusia, Spain",
    "coordinates": {
      "lat": 37.246984,
      "lon": -6.931827
    },
    "lat": 37.246984,
    "lon": -6.931827
  },
  {
    "name": "Casa Grego",
    "topic": "Seafood, Mediterranean",
    "rating": 4.3,
    "city": "Huelva",
    "address": "Casa Grego, Huelva, Andalusia, Spain",
    "coordinates": {
      "lat": 37.272762,
      "lon": -6.93475
    },
    "lat": 37.272762,
    "lon": -6.93475
  },
  {
    "name": "La Gamberra",
    "topic": "Bar, Mediterranean",
    "rating": 4.0,
    "city": "Huelva",
    "address": "La Gamberra, Plaza de Isabel la Católica, Huelva, Comarca Metropolitana de Huelva, Huelva, Andalucía, 21003",
    "lat": 37.255625,
    "lon": -6.957962,
    "coordinates": {
      "lat": 37.255625,
      "lon": -6.957962
    }
  },
  {
    "name": "Bar-Restaurante Rezon",
    "topic": "Seafood, Mediterranean",
    "rating": 4.8,
    "city": "Huelva",
    "address": "Bar-Restaurante Rezon, Huelva, Andalusia, Spain",
    "coordinates": {
      "lat": 37.27274,
      "lon": -6.931292
    },
    "lat": 37.27274,
    "lon": -6.931292
  },
  {
    "name": "Cervecería El Reencuentro Cafetería",
    "topic": "Spanish",
    "rating": 4.8,
    "city": "Huelva",
    "address": "Cervecería El Reencuentro Cafetería, Huelva, Andalusia, Spain",
    "coordinates": {
      "lat": 37.24897,
      "lon": -6.94512
    },
    "lat": 37.24897,
    "lon": -6.94512
  },
  {
    "name": "Abacería La Bronce",
    "topic": "Mediterranean, Barbecue",
    "rating": 4.5,
    "city": "Huelva",
    "address": "Abacería La Bronce, Huelva, Andalusia, Spain",
    "coordinates": {
      "lat": 37.248476,
      "lon": -6.936882
    },
    "lat": 37.248476,
    "lon": -6.936882
  },
  {
    "name": "Tabanco Don Pablo",
    "topic": "Cafe, Mediterranean",
    "rating": 4.5,
    "city": "Huelva",
    "address": "Tabanco Don Pablo, Huelva, Andalusia, Spain",
    "coordinates": {
      "lat": 37.269375,
      "lon": -6.955848
    },
    "lat": 37.269375,
    "lon": -6.955848
  },
  {
    "name": "Casa Calviño",
    "topic": "Spanish",
    "rating": 4.1,
    "city": "Huelva",
    "address": "Casa Calviño, Huelva, Andalusia, Spain",
    "coordinates": {
      "lat": 37.260658,
      "lon": -6.943206
    },
    "lat": 37.260658,
    "lon": -6.943206
  },
  {
    "name": "Restaurante La Tabernita",
    "topic": "Spanish",
    "rating": 4.0,
    "city": "Huelva",
    "address": "Restaurante La Tabernita, Huelva, Andalusia, Spain",
    "coordinates": {
      "lat": 37.254352,
      "lon": -6.933527
    },
    "lat": 37.254352,
    "lon": -6.933527
  },
  {
    "name": "El Rey del Pollo Asado",
    "topic": "Steakhouse, Fast Food",
    "rating": 4.2,
    "city": "Huelva",
    "address": "El Rey del Pollo Asado, Huelva, Andalusia, Spain",
    "coordinates": {
      "lat": 37.259094,
      "lon": -6.953346
    },
    "lat": 37.259094,
    "lon": -6.953346
  },
  {
    "name": "Bossé Bistró",
    "topic": "Spanish",
    "rating": 4.8,
    "city": "Huelva",
    "address": "Bossé Bistró, Huelva, Andalusia, Spain",
    "coordinates": {
      "lat": 37.262579,
      "lon": -6.937802
    },
    "lat": 37.262579,
    "lon": -6.937802
  },
  {
    "name": "Bar Los Varales",
    "topic": "Mediterranean, Spanish",
    "rating": 4.2,
    "city": "Huelva",
    "address": "Bar Los Varales, Huelva, Andalusia, Spain",
    "coordinates": {
      "lat": 37.252435,
      "lon": -6.950349
    },
    "lat": 37.252435,
    "lon": -6.950349
  },
  {
    "name": "Restaurante Equus",
    "topic": "Mediterranean",
    "rating": 4.7,
    "city": "Huelva",
    "address": "Restaurante Equus, Huelva, Andalusia, Spain",
    "coordinates": {
      "lat": 37.276254,
      "lon": -6.940204
    },
    "lat": 37.276254,
    "lon": -6.940204
  },
  {
    "name": "Tabernas Azul y Plata",
    "topic": "International, Mediterranean",
    "rating": 4.5,
    "city": "Huelva",
    "address": "Tabernas Azul y Plata, Huelva, Andalusia, Spain",
    "coordinates": {
      "lat": 37.259543,
      "lon": -6.944173
    },
    "lat": 37.259543,
    "lon": -6.944173
  },
  {
    "name": "5 Sentidos",
    "topic": "Bar, Cafe",
    "rating": 4.0,
    "city": "Huelva",
    "address": "5 Sentidos, Huelva, Andalusia, Spain",
    "coordinates": {
      "lat": 37.25003,
      "lon": -6.952959
    },
    "lat": 37.25003,
    "lon": -6.952959
  },
  {
    "name": "Burguer bar Las Colombianas",
    "topic": "Brazilian, European",
    "rating": 5.0,
    "city": "Huelva",
    "address": "Burguer bar Las Colombianas, Huelva, Andalusia, Spain",
    "coordinates": {
      "lat": 37.256543,
      "lon": -6.942051
    },
    "lat": 37.256543,
    "lon": -6.942051
  },
  {
    "name": "Makkadamia Churrería",
    "topic": "French",
    "rating": 4.0,
    "city": "Huelva",
    "address": "Makkadamia Churrería, Huelva, Andalusia, Spain",
    "coordinates": {
      "lat": 37.253303,
      "lon": -6.953093
    },
    "lat": 37.253303,
    "lon": -6.953093
  },
  {
    "name": "Pizzería Yomy",
    "topic": "Mediterranean, Spanish",
    "rating": 5.0,
    "city": "Huelva",
    "address": "Pizzería Yomy, Huelva, Andalusia, Spain",
    "coordinates": {
      "lat": 37.24853,
      "lon": -6.940767
    },
    "lat": 37.24853,
    "lon": -6.940767
  },
  {
    "name": "Restaurante Mar De Gloria",
    "topic": "Mediterranean, Spanish",
    "rating": 4.9,
    "city": "Antequera",
    "address": "Restaurante Mar De Gloria, Antequera, Andalusia, Spain",
    "coordinates": {
      "lat": 37.011168,
      "lon": -4.546737
    },
    "lat": 37.011168,
    "lon": -4.546737
  },
  {
    "name": "Mesón Adarve",
    "topic": "Mediterranean, Spanish",
    "rating": 4.8,
    "city": "Antequera",
    "address": "Mesón Adarve, Calle Merecillas, Antequera, Málaga, Andalucía, 29200",
    "lat": 37.030089,
    "lon": -4.571774,
    "coordinates": {
      "lat": 37.030089,
      "lon": -4.571774
    }
  },
  {
    "name": "Recuerdos Tapas Bodega",
    "topic": "Mediterranean, Spanish",
    "rating": 4.8,
    "city": "Antequera",
    "address": "Recuerdos Tapas Bodega, Calle Laguna, Antequera, Málaga, Andalucía, 29200",
    "lat": 37.01144,
    "lon": -4.553831,
    "coordinates": {
      "lat": 37.01144,
      "lon": -4.553831
    }
  },
  {
    "name": "Caserio de San Benito",
    "topic": "Mediterranean, Spanish",
    "rating": 4.6,
    "city": "Antequera",
    "address": "Caserio de San Benito, Antequera, Andalusia, Spain",
    "coordinates": {
      "lat": 37.010727,
      "lon": -4.569931
    },
    "lat": 37.010727,
    "lon": -4.569931
  },
  {
    "name": "Restaurante Abrasador Bodegas Triana",
    "topic": "Mediterranean, Spanish",
    "rating": 4.7,
    "city": "Antequera",
    "address": "Restaurante Abrasador Bodegas Triana, Antequera, Andalusia, Spain",
    "coordinates": {
      "lat": 37.032365,
      "lon": -4.556769
    },
    "lat": 37.032365,
    "lon": -4.556769
  },
  {
    "name": "Mesón Casa Diego",
    "topic": "Mediterranean, European",
    "rating": 4.5,
    "city": "Antequera",
    "address": "Méson Casa Diego, Calle Merecillas, Antequera, Málaga, Andalucía, 29200",
    "lat": 37.01848,
    "lon": -4.550361,
    "coordinates": {
      "lat": 37.01848,
      "lon": -4.550361
    }
  },
  {
    "name": "Arte de Cozina",
    "topic": "Mediterranean, European",
    "rating": 4.4,
    "city": "Antequera",
    "address": "Arte de Cozina, 27, Calle Calzada, Antequera, Málaga, Andalucía, 29200",
    "lat": 37.028525,
    "lon": -4.568188,
    "coordinates": {
      "lat": 37.028525,
      "lon": -4.568188
    }
  },
  {
    "name": "Alma de Triana Taberna Urbana",
    "topic": "Bars & Pubs, Mediterranean",
    "rating": 4.7,
    "city": "Antequera",
    "address": "Alma de Triana Taberna Urbana, Antequera, Andalusia, Spain",
    "coordinates": {
      "lat": 37.007208,
      "lon": -4.560968
    },
    "lat": 37.007208,
    "lon": -4.560968
  },
  {
    "name": "La Cayetana Restaurante Andaluz",
    "topic": "Bar, Mediterranean",
    "rating": 4.7,
    "city": "Antequera",
    "address": "La Cayetana Restaurante Andaluz, Antequera, Andalusia, Spain",
    "coordinates": {
      "lat": 37.017007,
      "lon": -4.559889
    },
    "lat": 37.017007,
    "lon": -4.559889
  },
  {
    "name": "A La Fuerza",
    "topic": "Cafe, Mediterranean",
    "rating": 4.4,
    "city": "Antequera",
    "address": "Bar A La Fuerza, 32, Alameda de Andalucía, Antequera, Málaga, Andalucía, 29200",
    "lat": 37.026172,
    "lon": -4.553699,
    "coordinates": {
      "lat": 37.026172,
      "lon": -4.553699
    }
  },
  {
    "name": "Mesón La Bombonera Casa Memé",
    "topic": "Steakhouse, Mediterranean",
    "rating": 4.6,
    "city": "Antequera",
    "address": "Mesón La Bombonera Casa Memé, Antequera, Andalusia, Spain",
    "coordinates": {
      "lat": 37.033825,
      "lon": -4.570947
    },
    "lat": 37.033825,
    "lon": -4.570947
  },
  {
    "name": "Restaurante Lorenzo y María",
    "topic": "Mediterranean, European",
    "rating": 4.3,
    "city": "Antequera",
    "address": "Restaurante Lorenzo y María, Antequera, Andalusia, Spain",
    "coordinates": {
      "lat": 37.016379,
      "lon": -4.563721
    },
    "lat": 37.016379,
    "lon": -4.563721
  },
  {
    "name": "Cervecería Casa Diego",
    "topic": "International, Mediterranean",
    "rating": 4.7,
    "city": "Antequera",
    "address": "Cervecería Casa Diego, Antequera, Andalusia, Spain",
    "coordinates": {
      "lat": 37.03015,
      "lon": -4.56644
    },
    "lat": 37.03015,
    "lon": -4.56644
  },
  {
    "name": "Restaurante A Mi Manera",
    "topic": "Mexican, Cafe",
    "rating": 5.0,
    "city": "Antequera",
    "address": "A mi Manera, Calle Diego Ponce, Antequera, Málaga, Andalucía, 29200",
    "lat": 37.010006,
    "lon": -4.560442,
    "coordinates": {
      "lat": 37.010006,
      "lon": -4.560442
    }
  },
  {
    "name": "Loulu Bistró",
    "topic": "Bar, Cafe",
    "rating": 4.5,
    "city": "Antequera",
    "address": "Loulu Bistró, Antequera, Andalusia, Spain",
    "coordinates": {
      "lat": 37.016956,
      "lon": -4.565544
    },
    "lat": 37.016956,
    "lon": -4.565544
  },
  {
    "name": "Restaurante Campo de Golf",
    "topic": "International, Mediterranean",
    "rating": 4.8,
    "city": "Antequera",
    "address": "Restaurante Campo de Golf, Antequera, Andalusia, Spain",
    "coordinates": {
      "lat": 37.011794,
      "lon": -4.546202
    },
    "lat": 37.011794,
    "lon": -4.546202
  },
  {
    "name": "Cafeteria Restaurante \"El Mercado\"",
    "topic": "Cafe, Mediterranean",
    "rating": 4.4,
    "city": "Antequera",
    "address": "Cafeteria Restaurante \"El Mercado\", Antequera, Andalusia, Spain",
    "coordinates": {
      "lat": 37.017594,
      "lon": -4.54806
    },
    "lat": 37.017594,
    "lon": -4.54806
  },
  {
    "name": "Restaurant Torcal Alto",
    "topic": "Cafe, Mediterranean",
    "rating": 4.5,
    "city": "Antequera",
    "address": "Restaurant Torcal Alto, Antequera, Andalusia, Spain",
    "coordinates": {
      "lat": 37.02081,
      "lon": -4.572382
    },
    "lat": 37.02081,
    "lon": -4.572382
  },
  {
    "name": "Mesón Coso Viejo",
    "topic": "Steakhouse, Pizza",
    "rating": 4.2,
    "city": "Antequera",
    "address": "Mesón Ibérico Dehesa Las Hazuelas, Coso Viejo, Antequera, Málaga, Andalucía, 29200",
    "lat": 37.034278,
    "lon": -4.548819,
    "coordinates": {
      "lat": 37.034278,
      "lon": -4.548819
    }
  },
  {
    "name": "Restaurante Leila",
    "topic": "Mediterranean, European",
    "rating": 4.1,
    "city": "Antequera",
    "address": "Leila, Calle Nueva, Antequera, Málaga, Andalucía, 29200",
    "lat": 37.03337,
    "lon": -4.546109,
    "coordinates": {
      "lat": 37.03337,
      "lon": -4.546109
    }
  },
  {
    "name": "La Mafia Se Sienta A La Mesa",
    "topic": "Italian, Pizza",
    "rating": 4.8,
    "city": "Antequera",
    "address": "La Mafia Se Sienta A La Mesa, Antequera, Andalusia, Spain",
    "coordinates": {
      "lat": 37.029761,
      "lon": -4.568911
    },
    "lat": 37.029761,
    "lon": -4.568911
  },
  {
    "name": "Malabar Gastro.taberna",
    "topic": "Mediterranean, European",
    "rating": 4.5,
    "city": "Antequera",
    "address": "Malabar Gastro.taberna, Antequera, Andalusia, Spain",
    "coordinates": {
      "lat": 37.018869,
      "lon": -4.567488
    },
    "lat": 37.018869,
    "lon": -4.567488
  },
  {
    "name": "Bar Carrera",
    "topic": "Mediterranean, Spanish",
    "rating": 4.3,
    "city": "Antequera",
    "address": "Bar Carrera, 18, Calle Carrera de Madre Carmen, Antequera, Málaga, Andalucía, 29200",
    "lat": 37.016331,
    "lon": -4.572141,
    "coordinates": {
      "lat": 37.016331,
      "lon": -4.572141
    }
  },
  {
    "name": "El Jardín",
    "topic": "Cafe, European",
    "rating": 4.9,
    "city": "Antequera",
    "address": "Cafetería Crepería El Jardín, Plaza de Castilla, Antequera, Málaga, Andalucía, 29200",
    "lat": 37.015669,
    "lon": -4.544341,
    "coordinates": {
      "lat": 37.015669,
      "lon": -4.544341
    }
  },
  {
    "name": "Ristorante Italiano Il Castello",
    "topic": "Italian, Pizza",
    "rating": 4.4,
    "city": "Antequera",
    "address": "Ristorante Italiano Il Castello, Antequera, Andalusia, Spain",
    "coordinates": {
      "lat": 37.012256,
      "lon": -4.550378
    },
    "lat": 37.012256,
    "lon": -4.550378
  },
  {
    "name": "Taberna el Rincón de Lola",
    "topic": "Mediterranean, Spanish",
    "rating": 4.1,
    "city": "Antequera",
    "address": "Taberna El Rincón de Lola, 8, Calle Encarnación, Antequera, Málaga, Andalucía, 29200",
    "lat": 37.01795,
    "lon": -4.56121,
    "coordinates": {
      "lat": 37.01795,
      "lon": -4.56121
    }
  },
  {
    "name": "Restaurante Nela Sushi Bar & Fusión Food",
    "topic": "Japanese, Sushi",
    "rating": 4.8,
    "city": "Antequera",
    "address": "Restaurante Nela Sushi Bar & Fusión Food, Antequera, Andalusia, Spain",
    "coordinates": {
      "lat": 37.03302,
      "lon": -4.544037
    },
    "lat": 37.03302,
    "lon": -4.544037
  },
  {
    "name": "hotel restaurant Castilla",
    "topic": "Mediterranean, European",
    "rating": 4.2,
    "city": "Antequera",
    "address": "hotel restaurant Castilla, Antequera, Andalusia, Spain",
    "coordinates": {
      "lat": 37.020973,
      "lon": -4.552348
    },
    "lat": 37.020973,
    "lon": -4.552348
  },
  {
    "name": "Meson Restaurante Juan Manuel",
    "topic": "Mediterranean, Spanish",
    "rating": 4.0,
    "city": "Antequera",
    "address": "Meson Restaurante Juan Manuel, Antequera, Andalusia, Spain",
    "coordinates": {
      "lat": 37.008944,
      "lon": -4.564999
    },
    "lat": 37.008944,
    "lon": -4.564999
  },
  {
    "name": "Meson Hace Buche",
    "topic": "Spanish",
    "rating": 4.6,
    "city": "Antequera",
    "address": "Meson Hace Buche, Antequera, Andalusia, Spain",
    "coordinates": {
      "lat": 37.033361,
      "lon": -4.556525
    },
    "lat": 37.033361,
    "lon": -4.556525
  },
  {
    "name": "Baraka Restaurante",
    "topic": "Mediterranean, Spanish",
    "rating": 4.3,
    "city": "Antequera",
    "address": "Baraka Restaurante, Antequera, Andalusia, Spain",
    "coordinates": {
      "lat": 37.020566,
      "lon": -4.551461
    },
    "lat": 37.020566,
    "lon": -4.551461
  },
  {
    "name": "Restaurante Refectorio",
    "topic": "Mediterranean, Spanish",
    "rating": 4.3,
    "city": "Antequera",
    "address": "Restaurante Refectorio, Antequera, Andalusia, Spain",
    "coordinates": {
      "lat": 37.006015,
      "lon": -4.556375
    },
    "lat": 37.006015,
    "lon": -4.556375
  },
  {
    "name": "I Romani Pizza",
    "topic": "Italian, Pizza",
    "rating": 4.5,
    "city": "Antequera",
    "address": "I Romani Pizza, Antequera, Andalusia, Spain",
    "coordinates": {
      "lat": 37.019386,
      "lon": -4.548318
    },
    "lat": 37.019386,
    "lon": -4.548318
  },
  {
    "name": "Casa Paco",
    "topic": "Steakhouse, Mediterranean",
    "rating": 4.6,
    "city": "Antequera",
    "address": "Casa Paco, Antequera, Andalusia, Spain",
    "coordinates": {
      "lat": 37.009023,
      "lon": -4.545077
    },
    "lat": 37.009023,
    "lon": -4.545077
  },
  {
    "name": "Bar Chicón",
    "topic": "Mediterranean, Spanish",
    "rating": 4.3,
    "city": "Antequera",
    "address": "Bar Chicón, Antequera, Andalusia, Spain",
    "coordinates": {
      "lat": 37.006703,
      "lon": -4.568325
    },
    "lat": 37.006703,
    "lon": -4.568325
  },
  {
    "name": "Venta El Conejo",
    "topic": "Spanish",
    "rating": 4.2,
    "city": "Antequera",
    "address": "Venta El Conejo, Antequera, Andalusia, Spain",
    "coordinates": {
      "lat": 37.022151,
      "lon": -4.553644
    },
    "lat": 37.022151,
    "lon": -4.553644
  },
  {
    "name": "Restaurante Anfitrión",
    "topic": "Mediterranean, Spanish",
    "rating": 4.8,
    "city": "Antequera",
    "address": "Restaurante Anfitrión, Antequera, Andalusia, Spain",
    "coordinates": {
      "lat": 37.011356,
      "lon": -4.570303
    },
    "lat": 37.011356,
    "lon": -4.570303
  },
  {
    "name": "Finca Eslava",
    "topic": "Mediterranean, European",
    "rating": 4.0,
    "city": "Antequera",
    "address": "Finca Eslava, A-7281, Antequera, Málaga, Andalucía, 29200",
    "lat": 37.031009,
    "lon": -4.566514,
    "coordinates": {
      "lat": 37.031009,
      "lon": -4.566514
    }
  },
  {
    "name": "Bar Restaurante La Nave",
    "topic": "Mediterranean, Spanish",
    "rating": 5.0,
    "city": "Antequera",
    "address": "Bar Restaurante La Nave, Antequera, Andalusia, Spain",
    "coordinates": {
      "lat": 37.022136,
      "lon": -4.555319
    },
    "lat": 37.022136,
    "lon": -4.555319
  },
  {
    "name": "Cervecería Bocatería Triana",
    "topic": "Mediterranean, Spanish",
    "rating": 4.4,
    "city": "Antequera",
    "address": "Cervecería Bocatería Triana, Antequera, Andalusia, Spain",
    "coordinates": {
      "lat": 37.016877,
      "lon": -4.55639
    },
    "lat": 37.016877,
    "lon": -4.55639
  },
  {
    "name": "Restaurante Bienmesabe",
    "topic": "Mediterranean, Spanish",
    "rating": 4.4,
    "city": "Antequera",
    "address": "Bienmesabe, Plaza del Escribano, Antequera, Málaga, Andalucía, 29200",
    "lat": 37.019983,
    "lon": -4.545859,
    "coordinates": {
      "lat": 37.019983,
      "lon": -4.545859
    }
  },
  {
    "name": "La Cantina",
    "topic": "Bar, Mediterranean",
    "rating": 4.3,
    "city": "Antequera",
    "address": "La Cantina, Alameda de Andalucía, Antequera, Málaga, Andalucía, 29200",
    "lat": 37.010428,
    "lon": -4.552414,
    "coordinates": {
      "lat": 37.010428,
      "lon": -4.552414
    }
  },
  {
    "name": "Parrilla San Bartolome",
    "topic": "Steakhouse, Cajun & Creole",
    "rating": 4.6,
    "city": "Antequera",
    "address": "Parrilla San Bartolome, Antequera, Andalusia, Spain",
    "coordinates": {
      "lat": 37.011461,
      "lon": -4.562026
    },
    "lat": 37.011461,
    "lon": -4.562026
  },
  {
    "name": "Saborio Del Hacebuche",
    "topic": "16",
    "rating": 4.4,
    "city": "Antequera",
    "address": "Saborio Del Hacebuche, Antequera, Andalusia, Spain",
    "coordinates": {
      "lat": 37.024451,
      "lon": -4.5649
    },
    "lat": 37.024451,
    "lon": -4.5649
  },
  {
    "name": "Casa Caro",
    "topic": "Bars & Pubs, Bar",
    "rating": 4.3,
    "city": "Antequera",
    "address": "Casa Caro, Antequera, Andalusia, Spain",
    "coordinates": {
      "lat": 37.013785,
      "lon": -4.551344
    },
    "lat": 37.013785,
    "lon": -4.551344
  },
  {
    "name": "Restaurante Terra",
    "topic": "Mediterranean, Barbecue",
    "rating": 4.8,
    "city": "Antequera",
    "address": "Restaurante Terra, Antequera, Andalusia, Spain",
    "coordinates": {
      "lat": 37.006476,
      "lon": -4.560151
    },
    "lat": 37.006476,
    "lon": -4.560151
  },
  {
    "name": "Casa Pepe Fox",
    "topic": "Bars & Pubs, Spanish",
    "rating": 4.0,
    "city": "Antequera",
    "address": "Casa Pepe Fox, Antequera, Andalusia, Spain",
    "coordinates": {
      "lat": 37.034254,
      "lon": -4.544017
    },
    "lat": 37.034254,
    "lon": -4.544017
  },
  {
    "name": "Restaurante Fuente del Sol",
    "topic": "Mediterranean, Spanish",
    "rating": 4.1,
    "city": "Antequera",
    "address": "Restaurante Fuente del Sol, Antequera, Andalusia, Spain",
    "coordinates": {
      "lat": 37.006498,
      "lon": -4.567505
    },
    "lat": 37.006498,
    "lon": -4.567505
  },
  {
    "name": "Restaurante El Rincon Del Hortelano",
    "topic": "miLa JoyaMediterranean, Spanish",
    "rating": 4.0,
    "city": "Antequera",
    "address": "Restaurante El Rincon Del Hortelano, Antequera, Andalusia, Spain",
    "coordinates": {
      "lat": 37.012256,
      "lon": -4.545902
    },
    "lat": 37.012256,
    "lon": -4.545902
  },
  {
    "name": "Gastrobar Casa Lucía",
    "topic": "Mediterranean, Spanish",
    "rating": 4.1,
    "city": "Antequera",
    "address": "Gastrobar Casa Lucía, Antequera, Andalusia, Spain",
    "coordinates": {
      "lat": 37.030726,
      "lon": -4.547522
    },
    "lat": 37.030726,
    "lon": -4.547522
  },
  {
    "name": "Bar Ladron",
    "topic": "Mediterranean, Spanish",
    "rating": 4.0,
    "city": "Antequera",
    "address": "Bar Ladron, Antequera, Andalusia, Spain",
    "coordinates": {
      "lat": 37.015386,
      "lon": -4.569168
    },
    "lat": 37.015386,
    "lon": -4.569168
  },
  {
    "name": "La Fabrica. El restaurante de la Escuela",
    "topic": "Spanish, Fusion",
    "rating": 4.8,
    "city": "Antequera",
    "address": "La Fabrica. El restaurante de la Escuela, Antequera, Andalusia, Spain",
    "coordinates": {
      "lat": 37.029312,
      "lon": -4.552794
    },
    "lat": 37.029312,
    "lon": -4.552794
  },
  {
    "name": "Cafeteria Bar, Toral",
    "topic": "Spanish",
    "rating": 4.2,
    "city": "Antequera",
    "address": "Cafeteria Bar, Toral, Antequera, Andalusia, Spain",
    "coordinates": {
      "lat": 37.02265,
      "lon": -4.544283
    },
    "lat": 37.02265,
    "lon": -4.544283
  },
  {
    "name": "La Bohème Restaurant",
    "topic": "Chinese, Japanese",
    "rating": 4.6,
    "city": "Antequera",
    "address": "La Bohème Restaurant, Antequera, Andalusia, Spain",
    "coordinates": {
      "lat": 37.023919,
      "lon": -4.573665
    },
    "lat": 37.023919,
    "lon": -4.573665
  },
  {
    "name": "Contradiccion",
    "topic": "American, Fast Food",
    "rating": 5.0,
    "city": "Antequera",
    "address": "Contradiccion, Antequera, Andalusia, Spain",
    "coordinates": {
      "lat": 37.028813,
      "lon": -4.564919
    },
    "lat": 37.028813,
    "lon": -4.564919
  },
  {
    "name": "Restaurante Entre Olivos",
    "topic": "Seafood, Mediterranean",
    "rating": 5.0,
    "city": "Antequera",
    "address": "Restaurante Entre Olivos, Antequera, Andalusia, Spain",
    "coordinates": {
      "lat": 37.024202,
      "lon": -4.545732
    },
    "lat": 37.024202,
    "lon": -4.545732
  },
  {
    "name": "Bar Asador El Patio",
    "topic": "Steakhouse, Mediterranean",
    "rating": 5.0,
    "city": "Antequera",
    "address": "Bar Asador El Patio, Antequera, Andalusia, Spain",
    "coordinates": {
      "lat": 37.008329,
      "lon": -4.570437
    },
    "lat": 37.008329,
    "lon": -4.570437
  },
  {
    "name": "Meson Momotombo",
    "topic": "Spanish",
    "rating": 4.4,
    "city": "Antequera",
    "address": "Meson Momotombo, Antequera, Andalusia, Spain",
    "coordinates": {
      "lat": 37.007511,
      "lon": -4.557303
    },
    "lat": 37.007511,
    "lon": -4.557303
  },
  {
    "name": "Restaurante Efebo",
    "topic": "Spanish",
    "rating": 4.3,
    "city": "Antequera",
    "address": "Restaurante Efebo, Antequera, Andalusia, Spain",
    "coordinates": {
      "lat": 37.01247,
      "lon": -4.555755
    },
    "lat": 37.01247,
    "lon": -4.555755
  },
  {
    "name": "Sushi Ki",
    "topic": "Spanish",
    "rating": 5.0,
    "city": "Antequera",
    "address": "Sushi Ki, Antequera, Andalusia, Spain",
    "coordinates": {
      "lat": 37.025828,
      "lon": -4.567792
    },
    "lat": 37.025828,
    "lon": -4.567792
  },
  {
    "name": "Parque Verónica",
    "topic": "Steakhouse, Seafood",
    "rating": 5.0,
    "city": "Antequera",
    "address": "Parque Verónica, Antequera, Andalusia, Spain",
    "coordinates": {
      "lat": 37.023327,
      "lon": -4.56598
    },
    "lat": 37.023327,
    "lon": -4.56598
  },
  {
    "name": "Asador de Pollos Samuel",
    "topic": "Trato nefasto",
    "rating": 4.2,
    "city": "Antequera",
    "address": "Asador de Pollos Samuel, Antequera, Andalusia, Spain",
    "coordinates": {
      "lat": 37.018956,
      "lon": -4.54674
    },
    "lat": 37.018956,
    "lon": -4.54674
  },
  {
    "name": "Bodegas Mezquita Cruz Del Rastro",
    "topic": "Mediterranean, Spanish",
    "rating": 4.8,
    "city": "Córdoba",
    "address": "Bodegas Mezquita, 2, Plaza Cruz del Rastro, San Pedro, Campo de la Verdad - Miraflores, Santiago, Córdoba, Andalucía, 14002",
    "lat": 37.898583,
    "lon": -4.791631,
    "coordinates": {
      "lat": 37.898583,
      "lon": -4.791631
    }
  },
  {
    "name": "Sibuya Urban Sushi Bar Córdoba",
    "topic": "Japanese, Sushi",
    "rating": 4.9,
    "city": "Córdoba",
    "address": "Sibuya Urban Sushi Bar, 37, Avenida del Gran Capitán, Campo de la Merced - Molinos Alta, Santiago, Córdoba, Andalucía, 14008",
    "lat": 37.885907,
    "lon": -4.7861,
    "coordinates": {
      "lat": 37.885907,
      "lon": -4.7861
    }
  },
  {
    "name": "Bodegas Mezquita Corregidor",
    "topic": "Mediterranean, Spanish",
    "rating": 4.6,
    "city": "Córdoba",
    "address": "Bodegas Mezquita Corregidor, Córdoba, Andalusia, Spain",
    "coordinates": {
      "lat": 37.873306,
      "lon": -4.771266
    },
    "lat": 37.873306,
    "lon": -4.771266
  },
  {
    "name": "Restaurante Bambú",
    "topic": "Japanese, Sushi",
    "rating": 4.9,
    "city": "Córdoba",
    "address": "Bambu, Carril bici Av. Aeropuerto, Ciudad Jardín, Distrito Poniente Sur, Córdoba, Andalucía, 14004",
    "lat": 37.892313,
    "lon": -4.786541,
    "coordinates": {
      "lat": 37.892313,
      "lon": -4.786541
    }
  },
  {
    "name": "Bodegas Mezquita Céspedes",
    "topic": "Mediterranean, Spanish",
    "rating": 4.6,
    "city": "Córdoba",
    "address": "Bodegas Mezquita, 12, Calle Céspedes, San Pedro, El Salvador y La Compañía, Santiago, Córdoba, Andalucía, 14003",
    "lat": 37.895437,
    "lon": -4.77785,
    "coordinates": {
      "lat": 37.895437,
      "lon": -4.77785
    }
  },
  {
    "name": "Taberna La Viuda",
    "topic": "Mediterranean, European",
    "rating": 4.5,
    "city": "Córdoba",
    "address": "Taberna La Viuda, 52, Calle San Basilio, Vista Alegre, San Basilio, Santiago, Córdoba, Andalucía, 14004",
    "lat": 37.886031,
    "lon": -4.79411,
    "coordinates": {
      "lat": 37.886031,
      "lon": -4.79411
    }
  },
  {
    "name": "Restaurante Damasco",
    "topic": "Lebanese, Mediterranean",
    "rating": 4.8,
    "city": "Córdoba",
    "address": "Restaurante Damasco, Córdoba, Andalusia, Spain",
    "coordinates": {
      "lat": 37.875457,
      "lon": -4.767907
    },
    "lat": 37.875457,
    "lon": -4.767907
  },
  {
    "name": "Cielito Lindo Café",
    "topic": "Mexican, Healthy",
    "rating": 4.7,
    "city": "Córdoba",
    "address": "Cielito Lindo Café, 5, Calle Ronda de La Manca, Barrio Fuensanta, Santiago, Córdoba, Andalucía, 14010",
    "lat": 37.900318,
    "lon": -4.778032,
    "coordinates": {
      "lat": 37.900318,
      "lon": -4.778032
    }
  },
  {
    "name": "Taberna Casa Pedro Ximénez",
    "topic": "Mediterranean, European",
    "rating": 4.8,
    "city": "Córdoba",
    "address": "Taberna Casa Pedro Ximénez, Córdoba, Andalusia, Spain",
    "coordinates": {
      "lat": 37.898238,
      "lon": -4.776925
    },
    "lat": 37.898238,
    "lon": -4.776925
  },
  {
    "name": "Onakasita",
    "topic": "Japanese, Sushi",
    "rating": 4.7,
    "city": "Córdoba",
    "address": "Onakasita, Calle José María Martorell, Vista Alegre, Poniente, Distrito Poniente Sur, Córdoba, Andalucía, 14005",
    "lat": 37.877643,
    "lon": -4.790577,
    "coordinates": {
      "lat": 37.877643,
      "lon": -4.790577
    }
  },
  {
    "name": "El Envero",
    "topic": "Mediterranean, European",
    "rating": 4.6,
    "city": "Córdoba",
    "address": "El Envero, 21, Calle Teruel, Camping, Distrito Norte Sierra, Córdoba, Andalucía, 14011",
    "lat": 37.882448,
    "lon": -4.767431,
    "coordinates": {
      "lat": 37.882448,
      "lon": -4.767431
    }
  },
  {
    "name": "Bodegas Mezquita Ribera",
    "topic": "Mediterranean, Spanish",
    "rating": 4.8,
    "city": "Córdoba",
    "address": "Bodegas Mezquita Ribera, Córdoba, Andalusia, Spain",
    "coordinates": {
      "lat": 37.897084,
      "lon": -4.768579
    },
    "lat": 37.897084,
    "lon": -4.768579
  },
  {
    "name": "Restaurante Puerta Sevilla",
    "topic": "Mediterranean, European",
    "rating": 4.5,
    "city": "Córdoba",
    "address": "Taberna Restaurante Puerta Sevilla, 51, Calle Postrera, Vista Alegre, San Basilio, Santiago, Córdoba, Andalucía, 14004",
    "lat": 37.900168,
    "lon": -4.788098,
    "coordinates": {
      "lat": 37.900168,
      "lon": -4.788098
    }
  },
  {
    "name": "Bocaito Andalusi Halal",
    "topic": "Moroccan, Middle Eastern",
    "rating": 4.7,
    "city": "Córdoba",
    "address": "Bocaito Andalusi Halal, Córdoba, Andalusia, Spain",
    "coordinates": {
      "lat": 37.880686,
      "lon": -4.791316
    },
    "lat": 37.880686,
    "lon": -4.791316
  },
  {
    "name": "Paseo Iberico",
    "topic": "Bar, Mediterranean",
    "rating": 4.7,
    "city": "Córdoba",
    "address": "Paseo Ibérico, Calle Lucano, San Pedro, Campo de la Verdad - Miraflores, Santiago, Córdoba, Andalucía, 14002",
    "lat": 37.896603,
    "lon": -4.767876,
    "coordinates": {
      "lat": 37.896603,
      "lon": -4.767876
    }
  },
  {
    "name": "Pasillo Oriental",
    "topic": "Mediterranean, Middle Eastern",
    "rating": 4.8,
    "city": "Córdoba",
    "address": "Pasillo Oriental, Calle Velázquez Bosco, San Pedro, El Salvador y La Compañía, Santiago, Córdoba, Andalucía, 14003",
    "lat": 37.885391,
    "lon": -4.77578,
    "coordinates": {
      "lat": 37.885391,
      "lon": -4.77578
    }
  },
  {
    "name": "ReComiendo",
    "topic": "Mediterranean, European",
    "rating": 4.7,
    "city": "Córdoba",
    "address": "ReComiendo, 5, Calle Alcalá Zamora, Urbanización Las Brisas, Valdeolleros, Distrito Norte Sierra, Córdoba, Andalucía, 14006",
    "lat": 37.877837,
    "lon": -4.766504,
    "coordinates": {
      "lat": 37.877837,
      "lon": -4.766504
    }
  },
  {
    "name": "Taberna La Cuarta",
    "topic": "Mediterranean, European",
    "rating": 4.6,
    "city": "Córdoba",
    "address": "Taberna La Cuarta, Calle Capitulares, San Salvador y La Compañía, Santiago, Córdoba, Andalucía, 14002",
    "lat": 37.899138,
    "lon": -4.765114,
    "coordinates": {
      "lat": 37.899138,
      "lon": -4.765114
    }
  },
  {
    "name": "Regadera",
    "topic": "Mediterranean, European",
    "rating": 4.6,
    "city": "Córdoba",
    "address": "La Regadera, 10, Ronda de Isasa, San Pedro, Campo de la Verdad - Miraflores, Santiago, Córdoba, Andalucía, 14003",
    "lat": 37.897523,
    "lon": -4.767958,
    "coordinates": {
      "lat": 37.897523,
      "lon": -4.767958
    }
  },
  {
    "name": "The Club",
    "topic": "American, Bar",
    "rating": 4.7,
    "city": "Córdoba",
    "address": "The Club, Calle de Luis Braille, Fray Albino, Distrito Sur, Córdoba, Andalucía, 14009",
    "lat": 37.873944,
    "lon": -4.772303,
    "coordinates": {
      "lat": 37.873944,
      "lon": -4.772303
    }
  },
  {
    "name": "LaMundi",
    "topic": "International, Mediterranean",
    "rating": 4.7,
    "city": "Córdoba",
    "address": "Lamundi, Avenida del Gran Capitán, Campo de la Merced - Molinos Alta, Santiago, Córdoba, Andalucía, 14008",
    "lat": 37.883166,
    "lon": -4.766476,
    "coordinates": {
      "lat": 37.883166,
      "lon": -4.766476
    }
  },
  {
    "name": "Restaurante",
    "topic": "Mediterranean, European",
    "rating": 4.6,
    "city": "Córdoba",
    "address": "Aparcamiento del Restaurante Cuevas Romanas, Calle Las Cuevas, Peñatejada, Córdoba, Andalucía, 14005",
    "lat": 37.897267,
    "lon": -4.768478,
    "coordinates": {
      "lat": 37.897267,
      "lon": -4.768478
    }
  },
  {
    "name": "Taberna El Abanico Ribera",
    "topic": "Mediterranean, Spanish",
    "rating": 4.7,
    "city": "Córdoba",
    "address": "Taberna El Abanico Ribera, Córdoba, Andalusia, Spain",
    "coordinates": {
      "lat": 37.897522,
      "lon": -4.786396
    },
    "lat": 37.897522,
    "lon": -4.786396
  },
  {
    "name": "La Perla Azul Cafetería - Tetería - Restaurante",
    "topic": "Moroccan, Cafe",
    "rating": 4.9,
    "city": "Córdoba",
    "address": "La Perla Azul Cafetería - Tetería - Restaurante, Córdoba, Andalusia, Spain",
    "coordinates": {
      "lat": 37.896821,
      "lon": -4.791157
    },
    "lat": 37.896821,
    "lon": -4.791157
  },
  {
    "name": "Vaquena Burger",
    "topic": "American",
    "rating": 4.7,
    "city": "Córdoba",
    "address": "Vaquena Burger, Calle de la Virgen del Perpetuo Socorro, Ciudad Jardín, Distrito Poniente Sur, Córdoba, Andalucía, 14004",
    "lat": 37.899365,
    "lon": -4.768642,
    "coordinates": {
      "lat": 37.899365,
      "lon": -4.768642
    }
  },
  {
    "name": "Tu Pescaíto",
    "topic": "Mediterranean, European",
    "rating": 4.7,
    "city": "Córdoba",
    "address": "Tu Pescaito, Plaza de la Corredera, San Pedro, Plaza de la Corredera, Santiago, Córdoba, Andalucía, 14002",
    "lat": 37.879873,
    "lon": -4.769902,
    "coordinates": {
      "lat": 37.879873,
      "lon": -4.769902
    }
  },
  {
    "name": "Restaurante Ermita de La Candelaria",
    "topic": "Mediterranean, Spanish",
    "rating": 4.7,
    "city": "Córdoba",
    "address": "Ermita de la Calendaria, 2, Calle Candelaria, San Pedro, Cerro de la Golondrina - Salesianos, Santiago, Córdoba, Andalucía, 14002",
    "lat": 37.887009,
    "lon": -4.785244,
    "coordinates": {
      "lat": 37.887009,
      "lon": -4.785244
    }
  },
  {
    "name": "Restaurante Sant'angelo",
    "topic": "Italian, Pizza",
    "rating": 4.9,
    "city": "Córdoba",
    "address": "Restaurante Sant'angelo, Córdoba, Andalusia, Spain",
    "coordinates": {
      "lat": 37.89706,
      "lon": -4.787572
    },
    "lat": 37.89706,
    "lon": -4.787572
  },
  {
    "name": "Restaurante Umaueyon",
    "topic": "Lebanese, Moroccan",
    "rating": 4.7,
    "city": "Córdoba",
    "address": "Restaurante Umaueyon, Córdoba, Andalusia, Spain",
    "coordinates": {
      "lat": 37.87391,
      "lon": -4.788606
    },
    "lat": 37.87391,
    "lon": -4.788606
  },
  {
    "name": "Taberna El Abanico",
    "topic": "Bar, Mediterranean",
    "rating": 4.4,
    "city": "Córdoba",
    "address": "Taberna El Abanico, Calle Velázquez Bosco, San Pedro, El Salvador y La Compañía, Santiago, Córdoba, Andalucía, 14003",
    "lat": 37.883048,
    "lon": -4.768469,
    "coordinates": {
      "lat": 37.883048,
      "lon": -4.768469
    }
  },
  {
    "name": "Noor Restaurant",
    "topic": "Mediterranean, Spanish",
    "rating": 4.7,
    "city": "Córdoba",
    "address": "Noor, Calle de Pablo Ruiz Picasso, Fidiana, Distrito Sureste, Córdoba, Andalucía, 14007",
    "lat": 37.902207,
    "lon": -4.786026,
    "coordinates": {
      "lat": 37.902207,
      "lon": -4.786026
    }
  },
  {
    "name": "Restaurante El Rincon de Carmen",
    "topic": "Mediterranean, Spanish",
    "rating": 4.5,
    "city": "Córdoba",
    "address": "Restaurante El Rincón de Carmen, 4, Calle Romero, Vista Alegre, La Trinidad, Santiago, Córdoba, Andalucía, 14003",
    "lat": 37.892444,
    "lon": -4.78241,
    "coordinates": {
      "lat": 37.892444,
      "lon": -4.78241
    }
  },
  {
    "name": "Patio Romano",
    "topic": "Italian, Mediterranean",
    "rating": 4.5,
    "city": "Córdoba",
    "address": "Patio Romano, 11, Calle de los Deanes, San Pedro, El Salvador y La Compañía, Santiago, Córdoba, Andalucía, 14003",
    "lat": 37.902634,
    "lon": -4.778314,
    "coordinates": {
      "lat": 37.902634,
      "lon": -4.778314
    }
  },
  {
    "name": "La Posada Del Caballo Andaluz",
    "topic": "Mediterranean, Spanish",
    "rating": 4.5,
    "city": "Córdoba",
    "address": "La Posada Del Caballo Andaluz, Córdoba, Andalusia, Spain",
    "coordinates": {
      "lat": 37.901377,
      "lon": -4.79094
    },
    "lat": 37.901377,
    "lon": -4.79094
  },
  {
    "name": "Taberna San Cristobal",
    "topic": "Mediterranean, Spanish",
    "rating": 4.6,
    "city": "Córdoba",
    "address": "Taberna San Cristobal, Córdoba, Andalusia, Spain",
    "coordinates": {
      "lat": 37.902312,
      "lon": -4.789043
    },
    "lat": 37.902312,
    "lon": -4.789043
  },
  {
    "name": "La Taberna de Almodovar",
    "topic": "Mediterranean, Spanish",
    "rating": 4.5,
    "city": "Córdoba",
    "address": "La Taberna de Almodóvar, Calle Benito Pérez Galdós, Campo de la Merced - Molinos Alta, Santiago, Córdoba, Andalucía, 14008",
    "lat": 37.902076,
    "lon": -4.786436,
    "coordinates": {
      "lat": 37.902076,
      "lon": -4.786436
    }
  },
  {
    "name": "Amaltea",
    "topic": "Mediterranean, European",
    "rating": 4.4,
    "city": "Córdoba",
    "address": "Amaltea, 10, Ronda de Isasa, San Pedro, Campo de la Verdad - Miraflores, Santiago, Córdoba, Andalucía, 14003",
    "lat": 37.876452,
    "lon": -4.781363,
    "coordinates": {
      "lat": 37.876452,
      "lon": -4.781363
    }
  },
  {
    "name": "Con Acento Parrilla Resto Bar",
    "topic": "Steakhouse, Mediterranean",
    "rating": 4.6,
    "city": "Córdoba",
    "address": "Con Acento Parrilla Resto Bar, Córdoba, Andalusia, Spain",
    "coordinates": {
      "lat": 37.895056,
      "lon": -4.78499
    },
    "lat": 37.895056,
    "lon": -4.78499
  },
  {
    "name": "Taberna Los Berengueles",
    "topic": "Mediterranean, European",
    "rating": 4.5,
    "city": "Córdoba",
    "address": "Taberna los Berengueles, Calle del Conde Torres Cabrera, San Miguel - Capuchinos, Santiago, Córdoba, Andalucía, 14001",
    "lat": 37.891386,
    "lon": -4.779057,
    "coordinates": {
      "lat": 37.891386,
      "lon": -4.779057
    }
  },
  {
    "name": "Restaurante Qurtubah",
    "topic": "Moroccan, Mediterranean",
    "rating": 4.5,
    "city": "Córdoba",
    "address": "Casa Qurtubah, 8, Calle Céspedes, San Pedro, El Salvador y La Compañía, Santiago, Córdoba, Andalucía, 14003",
    "lat": 37.884756,
    "lon": -4.777102,
    "coordinates": {
      "lat": 37.884756,
      "lon": -4.777102
    }
  },
  {
    "name": "Patio De La Judería",
    "topic": "Mediterranean, European",
    "rating": 4.2,
    "city": "Córdoba",
    "address": "Patio de la Judería, 6, Calle Conde y Luque, San Pedro, El Salvador y La Compañía, Santiago, Córdoba, Andalucía, 14003",
    "lat": 37.880842,
    "lon": -4.773136,
    "coordinates": {
      "lat": 37.880842,
      "lon": -4.773136
    }
  },
  {
    "name": "Terra Olea",
    "topic": "Mediterranean, European",
    "rating": 4.8,
    "city": "Córdoba",
    "address": "Terra Olea, Córdoba, Andalusia, Spain",
    "coordinates": {
      "lat": 37.873251,
      "lon": -4.766633
    },
    "lat": 37.873251,
    "lon": -4.766633
  },
  {
    "name": "Choco Restaurant",
    "topic": "Mediterranean, European",
    "rating": 4.5,
    "city": "Córdoba",
    "address": "Choco, 14, Calle del Compositor Serrano Lucena, Barrio Fuensanta, Distrito Sureste, Córdoba, Andalucía, 14010",
    "lat": 37.889354,
    "lon": -4.772817,
    "coordinates": {
      "lat": 37.889354,
      "lon": -4.772817
    }
  },
  {
    "name": "Taberna El Abanico Patio",
    "topic": "Mediterranean, Spanish",
    "rating": 4.7,
    "city": "Córdoba",
    "address": "Taberna El Abanico Patio, Córdoba, Andalusia, Spain",
    "coordinates": {
      "lat": 37.895459,
      "lon": -4.774281
    },
    "lat": 37.895459,
    "lon": -4.774281
  },
  {
    "name": "Restaurante Montevideo Steak House",
    "topic": "Steakhouse",
    "rating": 4.5,
    "city": "Córdoba",
    "address": "Restaurante Montevideo Steak House, Córdoba, Andalusia, Spain",
    "coordinates": {
      "lat": 37.884127,
      "lon": -4.792301
    },
    "lat": 37.884127,
    "lon": -4.792301
  },
  {
    "name": "Taberna Gongora",
    "topic": "Spanish",
    "rating": 4.4,
    "city": "Córdoba",
    "address": "Taberna Góngora, 4, Calle del Conde Torres Cabrera, San Miguel - Capuchinos, Santiago, Córdoba, Andalucía, 14001",
    "lat": 37.893127,
    "lon": -4.784494,
    "coordinates": {
      "lat": 37.893127,
      "lon": -4.784494
    }
  },
  {
    "name": "Taberna Salinas",
    "topic": "Mediterranean, Spanish",
    "rating": 4.3,
    "city": "Córdoba",
    "address": "Taberna Salinas, Calle Tundidores, San Pedro, San Andrés - San Pablo, Santiago, Córdoba, Andalucía, 14002",
    "lat": 37.882617,
    "lon": -4.76896,
    "coordinates": {
      "lat": 37.882617,
      "lon": -4.76896
    }
  },
  {
    "name": "Taberna La Montillana",
    "topic": "Mediterranean, Spanish",
    "rating": 4.4,
    "city": "Córdoba",
    "address": "Taberna La Montillana, 5, Calle San Álvaro, Centro Comercial, Santiago, Córdoba, Andalucía, 14003",
    "lat": 37.894793,
    "lon": -4.78539,
    "coordinates": {
      "lat": 37.894793,
      "lon": -4.78539
    }
  },
  {
    "name": "La Tinaja",
    "topic": "Mediterranean, European",
    "rating": 4.4,
    "city": "Córdoba",
    "address": "La Tinaja, 12, Paseo Ribera, San Pedro, Campo de la Verdad - Miraflores, Santiago, Córdoba, Andalucía, 14002",
    "lat": 37.882479,
    "lon": -4.782148,
    "coordinates": {
      "lat": 37.882479,
      "lon": -4.782148
    }
  },
  {
    "name": "Restaurante Sociedad Plateros Maria Auxiliadora‎",
    "topic": "Mediterranean, Spanish",
    "rating": 4.3,
    "city": "Córdoba",
    "address": "Sociedad de Plateros María Auxiliadora, Calle María Auxiliadora, San Lorenzo, Santiago, Córdoba, Andalucía, 14007",
    "lat": 37.885272,
    "lon": -4.78553,
    "coordinates": {
      "lat": 37.885272,
      "lon": -4.78553
    }
  },
  {
    "name": "Casa Rubio",
    "topic": "Mediterranean, Spanish",
    "rating": 4.4,
    "city": "Córdoba",
    "address": "Casa Rubio, 5, Calle Puerta de Almodóvar, Vista Alegre, La Trinidad, Santiago, Córdoba, Andalucía, 14003",
    "lat": 37.877019,
    "lon": -4.781787,
    "coordinates": {
      "lat": 37.877019,
      "lon": -4.781787
    }
  },
  {
    "name": "Doble de Cepa",
    "topic": "Mediterranean, European",
    "rating": 4.3,
    "city": "Córdoba",
    "address": "Calle de Doble de Cepa, Fray Albino, Distrito Sur, Córdoba, Andalucía, 14009",
    "lat": 37.901411,
    "lon": -4.77408,
    "coordinates": {
      "lat": 37.901411,
      "lon": -4.77408
    }
  },
  {
    "name": "Restaurante Almudaina",
    "topic": "Mediterranean, Spanish",
    "rating": 4.2,
    "city": "Córdoba",
    "address": "Restaurante Almudaina, 1, Calle Tomás Conde, Huerta del Rey - Vallellano, Santiago, Córdoba, Andalucía, 14004",
    "lat": 37.900284,
    "lon": -4.775935,
    "coordinates": {
      "lat": 37.900284,
      "lon": -4.775935
    }
  },
  {
    "name": "La Fragua",
    "topic": "Mediterranean, Spanish",
    "rating": 4.3,
    "city": "Córdoba",
    "address": "La Fragua, Calleja del Salmorejo Cordobés, San Pedro, Huerta del Rey - Vallellano, Santiago, Córdoba, Andalucía, 14003",
    "lat": 37.882228,
    "lon": -4.777962,
    "coordinates": {
      "lat": 37.882228,
      "lon": -4.777962
    }
  },
  {
    "name": "El Choto Restaurante",
    "topic": "Steakhouse, Mediterranean",
    "rating": 4.4,
    "city": "Córdoba",
    "address": "Restaurante El Choto, Calle Almanzor, Vista Alegre, La Trinidad, Santiago, Córdoba, Andalucía, 14003",
    "lat": 37.873212,
    "lon": -4.785793,
    "coordinates": {
      "lat": 37.873212,
      "lon": -4.785793
    }
  },
  {
    "name": "Casa Pepe De La Juderia",
    "topic": "Mediterranean, Spanish",
    "rating": 4.3,
    "city": "Córdoba",
    "address": "Casa Pepe de la Judería, Calle Romero, Vista Alegre, La Trinidad, Santiago, Córdoba, Andalucía, 14003",
    "lat": 37.886097,
    "lon": -4.777,
    "coordinates": {
      "lat": 37.886097,
      "lon": -4.777
    }
  },
  {
    "name": "Mesón San Basilio",
    "topic": "Mediterranean, European",
    "rating": 4.3,
    "city": "Córdoba",
    "address": "Mesón San Basilio, Calle San Basilio, Vista Alegre, San Basilio, Santiago, Córdoba, Andalucía, 14004",
    "lat": 37.892841,
    "lon": -4.78045,
    "coordinates": {
      "lat": 37.892841,
      "lon": -4.78045
    }
  },
  {
    "name": "La Tranquera Restaurante",
    "topic": "Steakhouse, Latin",
    "rating": 4.4,
    "city": "Córdoba",
    "address": "La Tranquera, Plaza de la Alhóndiga, San Pedro, El Salvador y La Compañía, Santiago, Córdoba, Andalucía, 14003",
    "lat": 37.886465,
    "lon": -4.787989,
    "coordinates": {
      "lat": 37.886465,
      "lon": -4.787989
    }
  },
  {
    "name": "Casa Mazal - Restaurante Sefardí",
    "topic": "Mediterranean, Spanish",
    "rating": 4.3,
    "city": "Córdoba",
    "address": "Casa Mazal - Restaurante Sefardí, Córdoba, Andalusia, Spain",
    "coordinates": {
      "lat": 37.887396,
      "lon": -4.767365
    },
    "lat": 37.887396,
    "lon": -4.767365
  },
  {
    "name": "Restaurante El Churrasco",
    "topic": "Spanish",
    "rating": 4.2,
    "city": "Córdoba",
    "address": "El Churrasco, Calle Romero, Vista Alegre, La Trinidad, Santiago, Córdoba, Andalucía, 14003",
    "lat": 37.897081,
    "lon": -4.789309,
    "coordinates": {
      "lat": 37.897081,
      "lon": -4.789309
    }
  },
  {
    "name": "La Furgo",
    "topic": "Mediterranean, European",
    "rating": 4.4,
    "city": "Córdoba",
    "address": "La Furgo, 7, Ronda de Isasa, San Pedro, Campo de la Verdad - Miraflores, Santiago, Córdoba, Andalucía, 14003",
    "lat": 37.875744,
    "lon": -4.778936,
    "coordinates": {
      "lat": 37.875744,
      "lon": -4.778936
    }
  },
  {
    "name": "La Cuchara de San Lorenzo",
    "topic": "Mediterranean, European",
    "rating": 4.4,
    "city": "Córdoba",
    "address": "La Cuchara, Calle Arroyo de San Lorenzo, San Pedro, San Lorenzo, Santiago, Córdoba, Andalucía, 14002",
    "lat": 37.892188,
    "lon": -4.784344,
    "coordinates": {
      "lat": 37.892188,
      "lon": -4.784344
    }
  },
  {
    "name": "Restaurante La Boca",
    "topic": "Mediterranean, European",
    "rating": 4.3,
    "city": "Córdoba",
    "address": "La Boca, 39, Calle San Fernando, San Salvador y La Compañía, Santiago, Córdoba, Andalucía, 14003",
    "lat": 37.897753,
    "lon": -4.771866,
    "coordinates": {
      "lat": 37.897753,
      "lon": -4.771866
    }
  },
  {
    "name": "El Patio Andaluz",
    "topic": "Mediterranean, European",
    "rating": 4.3,
    "city": "Córdoba",
    "address": "Taberna El Patio Andaluz, Calle Velázquez Bosco, San Pedro, El Salvador y La Compañía, Santiago, Córdoba, Andalucía, 14003",
    "lat": 37.893384,
    "lon": -4.787661,
    "coordinates": {
      "lat": 37.893384,
      "lon": -4.787661
    }
  },
  {
    "name": "La Siesta",
    "topic": "Mediterranean, Spanish",
    "rating": 4.2,
    "city": "Córdoba",
    "address": "La Siesta, Calle Enrique Romero de Torres, San Pedro, Campo de la Verdad - Miraflores, Santiago, Córdoba, Andalucía, 14002",
    "lat": 37.879174,
    "lon": -4.793667,
    "coordinates": {
      "lat": 37.879174,
      "lon": -4.793667
    }
  },
  {
    "name": "Massamore",
    "topic": "Italian, Pizza",
    "rating": 5.0,
    "city": "Córdoba",
    "address": "Massamore, Córdoba, Andalusia, Spain",
    "coordinates": {
      "lat": 37.880545,
      "lon": -4.780146
    },
    "lat": 37.880545,
    "lon": -4.780146
  },
  {
    "name": "Taberna Rincon De Las Beatillas",
    "topic": "Mediterranean, Spanish",
    "rating": 4.3,
    "city": "Córdoba",
    "address": "Taberna Rincon De Las Beatillas, Córdoba, Andalusia, Spain",
    "coordinates": {
      "lat": 37.898692,
      "lon": -4.792215
    },
    "lat": 37.898692,
    "lon": -4.792215
  },
  {
    "name": "Panzamorena",
    "topic": "Italian, Mediterranean",
    "rating": 4.9,
    "city": "Córdoba",
    "address": "Panzamorena, Calle Rodríguez Marín, San Pedro, San Andrés - San Pablo, Santiago, Córdoba, Andalucía, 14002",
    "lat": 37.885633,
    "lon": -4.775507,
    "coordinates": {
      "lat": 37.885633,
      "lon": -4.775507
    }
  },
  {
    "name": "Taberna Casa Pepe Salinas",
    "topic": "Mediterranean, Spanish",
    "rating": 4.8,
    "city": "Córdoba",
    "address": "Taberna Casa Pepe Salinas, Córdoba, Andalusia, Spain",
    "coordinates": {
      "lat": 37.879033,
      "lon": -4.773509
    },
    "lat": 37.879033,
    "lon": -4.773509
  },
  {
    "name": "Taberna El Capricho",
    "topic": "Mediterranean, European",
    "rating": 4.2,
    "city": "Córdoba",
    "address": "Taberna El Capricho, Calle Velázquez Bosco, San Pedro, El Salvador y La Compañía, Santiago, Córdoba, Andalucía, 14003",
    "lat": 37.888031,
    "lon": -4.78708,
    "coordinates": {
      "lat": 37.888031,
      "lon": -4.78708
    }
  },
  {
    "name": "La Taberna del Río",
    "topic": "Mediterranean, European",
    "rating": 4.2,
    "city": "Córdoba",
    "address": "La Muralla, Calle Virgen del Rosario, Palma del Río, Córdoba, Andalucía, 14700",
    "lat": 37.892882,
    "lon": -4.794234,
    "coordinates": {
      "lat": 37.892882,
      "lon": -4.794234
    }
  },
  {
    "name": "Taberna La Alqueria",
    "topic": "Mediterranean, European",
    "rating": 4.3,
    "city": "Córdoba",
    "address": "Taberna La Alquería, Calle Enrique Romero de Torres, San Pedro, Campo de la Verdad - Miraflores, Santiago, Córdoba, Andalucía, 14002",
    "lat": 37.895729,
    "lon": -4.771299,
    "coordinates": {
      "lat": 37.895729,
      "lon": -4.771299
    }
  },
  {
    "name": "Campos de Toro",
    "topic": "Mediterranean, European",
    "rating": 4.4,
    "city": "Córdoba",
    "address": "Campos de Toro, 73, Calle del Corregidor Luis de la Cerda, San Pedro, El Salvador y La Compañía, Santiago, Córdoba, Andalucía, 14003",
    "lat": 37.876398,
    "lon": -4.781646,
    "coordinates": {
      "lat": 37.876398,
      "lon": -4.781646
    }
  },
  {
    "name": "De Cobre Y Picón",
    "topic": "Steakhouse, Mediterranean",
    "rating": 4.9,
    "city": "Córdoba",
    "address": "De Cobre Y Picón, Córdoba, Andalusia, Spain",
    "coordinates": {
      "lat": 37.878477,
      "lon": -4.765661
    },
    "lat": 37.878477,
    "lon": -4.765661
  },
  {
    "name": "Horma",
    "topic": "Bar, Mediterranean",
    "rating": 4.7,
    "city": "Córdoba",
    "address": "Horma, 3, Calle Albucasis, Vista Alegre, Huerta del Rey - Vallellano, Santiago, Córdoba, Andalucía, 14003",
    "lat": 37.888739,
    "lon": -4.792893,
    "coordinates": {
      "lat": 37.888739,
      "lon": -4.792893
    }
  },
  {
    "name": "Macsura Gastrotaberna",
    "topic": "Mediterranean, European",
    "rating": 4.3,
    "city": "Córdoba",
    "address": "Macsura Gastrotaberna, Córdoba, Andalusia, Spain",
    "coordinates": {
      "lat": 37.880676,
      "lon": -4.76895
    },
    "lat": 37.880676,
    "lon": -4.76895
  },
  {
    "name": "Horno San Luis",
    "topic": "Mediterranean, European",
    "rating": 4.1,
    "city": "Córdoba",
    "address": "Horno San Luis, Córdoba, Andalusia, Spain",
    "coordinates": {
      "lat": 37.886894,
      "lon": -4.770358
    },
    "lat": 37.886894,
    "lon": -4.770358
  },
  {
    "name": "La Fabbrica Pizzeria",
    "topic": "Italian, Pizza",
    "rating": 4.3,
    "city": "Córdoba",
    "address": "La Fabbrica Pizzeria, Córdoba, Andalusia, Spain",
    "coordinates": {
      "lat": 37.893227,
      "lon": -4.764763
    },
    "lat": 37.893227,
    "lon": -4.764763
  },
  {
    "name": "Si Quiero",
    "topic": "Italian, Pizza",
    "rating": 4.5,
    "city": "Córdoba",
    "address": "Sí, quiero, Go!, 10, Avenida Arroyo del Moro, Las Margaritas, Distrito Noroeste, Córdoba, Andalucía, 14011",
    "lat": 37.891064,
    "lon": -4.765899,
    "coordinates": {
      "lat": 37.891064,
      "lon": -4.765899
    }
  },
  {
    "name": "Barra y Mesa",
    "topic": "Mediterranean, Spanish",
    "rating": 4.7,
    "city": "Córdoba",
    "address": "Barra y Mesa, Córdoba, Andalusia, Spain",
    "coordinates": {
      "lat": 37.899943,
      "lon": -4.77602
    },
    "lat": 37.899943,
    "lon": -4.77602
  },
  {
    "name": "Bodegas Campos",
    "topic": "Mediterranean, Spanish",
    "rating": 4.1,
    "city": "Córdoba",
    "address": "Bodegas Campos, Calle Lineros, San Pedro, Cerro de la Golondrina - Salesianos, Santiago, Córdoba, Andalucía, 14002",
    "lat": 37.894778,
    "lon": -4.779257,
    "coordinates": {
      "lat": 37.894778,
      "lon": -4.779257
    }
  },
  {
    "name": "Canadian Bar and Tapas",
    "topic": "Bar, Mediterranean",
    "rating": 4.3,
    "city": "Córdoba",
    "address": "Canadian Bar and Tapas, Córdoba, Andalusia, Spain",
    "coordinates": {
      "lat": 37.898117,
      "lon": -4.777964
    },
    "lat": 37.898117,
    "lon": -4.777964
  },
  {
    "name": "Elminibar",
    "topic": "American, Mediterranean",
    "rating": 4.7,
    "city": "Córdoba",
    "address": "Elminibar, Córdoba, Andalusia, Spain",
    "coordinates": {
      "lat": 37.900116,
      "lon": -4.77209
    },
    "lat": 37.900116,
    "lon": -4.77209
  },
  {
    "name": "restaurante tablao el jaleo",
    "topic": "Spanish",
    "rating": 4.7,
    "city": "Córdoba",
    "address": "restaurante tablao el jaleo, Córdoba, Andalusia, Spain",
    "coordinates": {
      "lat": 37.88744,
      "lon": -4.786624
    },
    "lat": 37.88744,
    "lon": -4.786624
  },
  {
    "name": "Taberna El Poema",
    "topic": "Bar, Mediterranean",
    "rating": 4.1,
    "city": "Córdoba",
    "address": "Taberna El Poema, 2, Calle Alonso de Burgos, Centro Comercial, Santiago, Córdoba, Andalucía, 14008",
    "lat": 37.880617,
    "lon": -4.77527,
    "coordinates": {
      "lat": 37.880617,
      "lon": -4.77527
    }
  },
  {
    "name": "La Cazuela de la Esparteria",
    "topic": "Spanish",
    "rating": 4.0,
    "city": "Córdoba",
    "address": "La Cazuela de la Esparteria, Córdoba, Andalusia, Spain",
    "coordinates": {
      "lat": 37.896174,
      "lon": -4.778761
    },
    "lat": 37.896174,
    "lon": -4.778761
  },
  {
    "name": "La Caravana - Cocina Viajera",
    "topic": "Latin, International",
    "rating": 4.9,
    "address": "Calle José Denis Belgrano 25, 29008 Málaga, Spain",
    "city": "Málaga",
    "coordinates": {
      "lat": 36.725102,
      "lon": -4.428162
    },
    "lat": 36.725102,
    "lon": -4.428162
  },
  {
    "name": "Caos",
    "topic": "Latin, Spanish",
    "rating": 4.9,
    "address": "Calle Gómez Pallete 5, Local 12, 29013 Málaga, Spain",
    "city": "Málaga",
    "coordinates": {
      "lat": 36.708625,
      "lon": -4.427828
    },
    "lat": 36.708625,
    "lon": -4.427828
  },
  {
    "name": "Budare Venezuelan Food",
    "topic": "Latin, Healthy",
    "rating": 4.9,
    "address": "Calle Beatas 40, 29008 Málaga, Spain",
    "city": "Málaga",
    "coordinates": {
      "lat": 36.714451,
      "lon": -4.426809
    },
    "lat": 36.714451,
    "lon": -4.426809
  },
  {
    "name": "Trattoria Mamma Franca",
    "topic": "Italian, Pizza",
    "rating": 4.8,
    "address": "Avenida Imperio Argentina 7, Locales 9-10, 29004 Málaga, Spain",
    "city": "Málaga",
    "coordinates": {
      "lat": 36.722505,
      "lon": -4.432249
    },
    "lat": 36.722505,
    "lon": -4.432249
  },
  {
    "name": "Alegría Flamenco Y Gastronomía",
    "topic": "Mediterranean, Spanish",
    "rating": 4.9,
    "address": "Calle Vélez Málaga 6, 29016 Málaga, Spain",
    "city": "Málaga",
    "coordinates": {
      "lat": 36.713238,
      "lon": -4.415582
    },
    "lat": 36.713238,
    "lon": -4.415582
  },
  {
    "name": "Anyway Wine Bar",
    "topic": "Mediterranean, European",
    "rating": 4.8,
    "address": "Paseo de la Farola 8, 29016 Málaga, Spain",
    "city": "Málaga",
    "coordinates": {
      "lat": 36.727493,
      "lon": -4.434473
    },
    "lat": 36.727493,
    "lon": -4.434473
  },
  {
    "name": "La Ristobottega",
    "topic": "Italian, Pizza",
    "rating": 4.9,
    "address": "Calle Cañón 3, 29015 Málaga, Spain",
    "city": "Málaga",
    "coordinates": {
      "lat": 36.718528,
      "lon": -4.420122
    },
    "lat": 36.718528,
    "lon": -4.420122
  },
  {
    "name": "Arrebato Gastrotaberna",
    "topic": "Spanish, Fusion",
    "rating": 4.9,
    "address": "Calle San Juan de Letrán 17, 29012 Málaga, Spain",
    "city": "Málaga",
    "coordinates": {
      "lat": 36.718773,
      "lon": -4.430195
    },
    "lat": 36.718773,
    "lon": -4.430195
  },
  {
    "name": "Andino Huelin",
    "topic": "Mexican, Peruvian",
    "rating": 4.9,
    "address": "Calle Tomás Echeverría 5, 29002 Málaga, Spain",
    "city": "Málaga",
    "coordinates": {
      "lat": 36.718904,
      "lon": -4.409255
    },
    "lat": 36.718904,
    "lon": -4.409255
  },
  {
    "name": "Amigos Plaza Mayor",
    "topic": "Mexican, Indian",
    "rating": 4.8,
    "address": "Calle Alfonso Ponce de León 3, 29140 Málaga, Spain",
    "city": "Málaga",
    "coordinates": {
      "lat": 36.723822,
      "lon": -4.415534
    },
    "lat": 36.723822,
    "lon": -4.415534
  },
  {
    "name": "El Encuentro",
    "topic": "Bar, Mediterranean",
    "rating": 4.8,
    "address": "Calle Ayala 43, 29002 Málaga, Spain",
    "city": "Málaga",
    "coordinates": {
      "lat": 36.732002,
      "lon": -4.413432
    },
    "lat": 36.732002,
    "lon": -4.413432
  },
  {
    "name": "Mezcal Gastrobar Mexicano",
    "topic": "Mexican, Latin",
    "rating": 4.9,
    "address": "Calle Moreno Monroy 7, 29015 Málaga, Spain",
    "city": "Málaga",
    "coordinates": {
      "lat": 36.717711,
      "lon": -4.436223
    },
    "lat": 36.717711,
    "lon": -4.436223
  },
  {
    "name": "Casa Ovi",
    "topic": "Mediterranean, Spanish",
    "rating": 4.9,
    "address": "Avenida de Sor Teresa Prat 72, 29004 Málaga, Spain",
    "city": "Málaga",
    "coordinates": {
      "lat": 36.716853,
      "lon": -4.413796
    },
    "lat": 36.716853,
    "lon": -4.413796
  },
  {
    "name": "Buenavista Gastrobar & Tapas",
    "topic": "Mediterranean, European",
    "rating": 4.8,
    "address": "Calle Gaona 8, 29012 Málaga, Spain",
    "city": "Málaga",
    "coordinates": {
      "lat": 36.731903,
      "lon": -4.407797
    },
    "lat": 36.731903,
    "lon": -4.407797
  },
  {
    "name": "Tasca Láska Malagueta",
    "topic": "Mediterranean, European",
    "rating": 4.9,
    "address": "Calle Fernando Camino 15, 29016 Málaga, Spain",
    "city": "Málaga",
    "coordinates": {
      "lat": 36.718871,
      "lon": -4.413975
    },
    "lat": 36.718871,
    "lon": -4.413975
  },
  {
    "name": "Balcón de las Flores",
    "topic": "Mediterranean, Spanish",
    "rating": 4.8,
    "address": "Calle Martínez 12, 29005 Málaga, Spain",
    "city": "Málaga",
    "coordinates": {
      "lat": 36.722684,
      "lon": -4.418302
    },
    "lat": 36.722684,
    "lon": -4.418302
  },
  {
    "name": "Restaurante Vino Mío",
    "topic": "International, Spanish",
    "rating": 4.5,
    "address": "Plaza de Jerónimo Cuervo 2, 29012 Málaga, Spain",
    "city": "Málaga",
    "coordinates": {
      "lat": 36.712916,
      "lon": -4.429817
    },
    "lat": 36.712916,
    "lon": -4.429817
  },
  {
    "name": "El Rincon de Lola",
    "topic": "Mediterranean, European",
    "rating": 4.8,
    "address": "Plaza Moreno Villa 9, 29002 Málaga, Spain",
    "city": "Málaga",
    "coordinates": {
      "lat": 36.719375,
      "lon": -4.435529
    },
    "lat": 36.719375,
    "lon": -4.435529
  },
  {
    "name": "Tercer Acto",
    "topic": "Mediterranean, Sushi",
    "rating": 4.8,
    "address": "Calle Córdoba 13, 29001 Málaga, Spain",
    "city": "Málaga",
    "coordinates": {
      "lat": 36.716384,
      "lon": -4.416026
    },
    "lat": 36.716384,
    "lon": -4.416026
  },
  {
    "name": "Spago's Pasta Fresca",
    "topic": "Italian, Fast Food",
    "rating": 4.9,
    "address": "Calle Calderería 11, 29008 Málaga, Spain",
    "city": "Málaga",
    "coordinates": {
      "lat": 36.71843,
      "lon": -4.431449
    },
    "lat": 36.71843,
    "lon": -4.431449
  },
  {
    "name": "Sibuya Urban Sushi Bar Málaga",
    "topic": "Japanese, Sushi",
    "rating": 4.8,
    "address": "Calle Granada 36, 29015 Málaga, Spain",
    "city": "Málaga",
    "coordinates": {
      "lat": 36.720322,
      "lon": -4.432571
    },
    "lat": 36.720322,
    "lon": -4.432571
  },
  {
    "name": "Restaurante Da Saveria",
    "topic": "Italian, Mediterranean",
    "rating": 4.7,
    "address": "Calle Ancha del Carmen 30, 29002 Málaga, Spain",
    "city": "Málaga",
    "coordinates": {
      "lat": 36.724968,
      "lon": -4.435591
    },
    "lat": 36.724968,
    "lon": -4.435591
  },
  {
    "name": "Comparte",
    "topic": "International, Mediterranean",
    "rating": 4.8,
    "address": "Calle Moreno Monroy 6, 29015 Málaga, Spain",
    "city": "Málaga",
    "coordinates": {
      "lat": 36.718121,
      "lon": -4.419468
    },
    "lat": 36.718121,
    "lon": -4.419468
  },
  {
    "name": "Andino Gastrobar",
    "topic": "American, Peruvian",
    "rating": 4.8,
    "address": "Calle Calderón de la Barca 3, 29005 Málaga, Spain",
    "city": "Málaga",
    "coordinates": {
      "lat": 36.707113,
      "lon": -4.417118
    },
    "lat": 36.707113,
    "lon": -4.417118
  },
  {
    "name": "Papá Piquillo",
    "topic": "Bar, Mediterranean",
    "rating": 4.8,
    "address": "Calle Cárcer 2, 29008 Málaga, Spain",
    "city": "Málaga",
    "coordinates": {
      "lat": 36.710371,
      "lon": -4.422549
    },
    "lat": 36.710371,
    "lon": -4.422549
  },
  {
    "name": "Blossom",
    "topic": "International, Contemporary",
    "rating": 4.8,
    "address": "Plaza de la Aduana s/n, 29015 Málaga, Spain",
    "city": "Málaga",
    "coordinates": {
      "lat": 36.707809,
      "lon": -4.425027
    },
    "lat": 36.707809,
    "lon": -4.425027
  },
  {
    "name": "El Lagar de Verum",
    "topic": "Seafood, Mediterranean",
    "rating": 4.8,
    "address": "Calle Olmos 43, 29018 Málaga, Spain",
    "city": "Málaga",
    "coordinates": {
      "lat": 36.71265,
      "lon": -4.426595
    },
    "lat": 36.71265,
    "lon": -4.426595
  },
  {
    "name": "El Gastronauta",
    "topic": "International, Mediterranean",
    "rating": 4.6,
    "address": "Calle Dos Aceras 20, 29012 Málaga, Spain",
    "city": "Málaga",
    "coordinates": {
      "lat": 36.729137,
      "lon": -4.425026
    },
    "lat": 36.729137,
    "lon": -4.425026
  },
  {
    "name": "La Barra De Doña Inés",
    "topic": "Mediterranean, Spanish",
    "rating": 4.7,
    "address": "Alameda Principal 15, 29001 Málaga, Spain",
    "city": "Málaga",
    "coordinates": {
      "lat": 36.72886,
      "lon": -4.411442
    },
    "lat": 36.72886,
    "lon": -4.411442
  },
  {
    "name": "Angus Muelle Uno",
    "topic": "Steakhouse",
    "rating": 4.5,
    "address": "Muelle Uno, Local 55, Paseo de la Farola, 29001 Málaga, Spain",
    "city": "Málaga",
    "coordinates": {
      "lat": 36.713868,
      "lon": -4.433943
    },
    "lat": 36.713868,
    "lon": -4.433943
  },
  {
    "name": "La Alacena de Francis",
    "topic": "Spanish, Russian",
    "rating": 4.8,
    "address": "Calle Montalbán 1, 29002 Málaga, Spain",
    "city": "Málaga",
    "coordinates": {
      "lat": 36.706881,
      "lon": -4.420217
    },
    "lat": 36.706881,
    "lon": -4.420217
  },
  {
    "name": "Saloniki",
    "topic": "Mediterranean, European",
    "rating": 4.3,
    "address": "Muelle Uno - Puerto de Málaga, Local 60, 29016 Málaga, Spain",
    "city": "Málaga",
    "coordinates": {
      "lat": 36.736297,
      "lon": -4.425901
    },
    "lat": 36.736297,
    "lon": -4.425901
  },
  {
    "name": "Ultramarinos Benjamín",
    "topic": "Mediterranean, Spanish",
    "rating": 4.8,
    "address": "Ultramarinos Benjamín, Málaga, Andalusia, Spain",
    "city": "Málaga",
    "coordinates": {
      "lat": 36.725804,
      "lon": -4.412963
    },
    "lat": 36.725804,
    "lon": -4.412963
  },
  {
    "name": "Amigos Malaga Centro",
    "topic": "Mexican, Indian",
    "rating": 4.7,
    "address": "Amigos Malaga Centro, Málaga, Andalusia, Spain",
    "city": "Málaga",
    "coordinates": {
      "lat": 36.725853,
      "lon": -4.413773
    },
    "lat": 36.725853,
    "lon": -4.413773
  },
  {
    "name": "Taberna Taperia Los 13",
    "topic": "Mediterranean",
    "rating": 4.8,
    "address": "Taberna Taperia Los 13, Málaga, Andalusia, Spain",
    "city": "Málaga",
    "coordinates": {
      "lat": 36.734788,
      "lon": -4.430419
    },
    "lat": 36.734788,
    "lon": -4.430419
  },
  {
    "name": "Tasca Láska",
    "topic": "International, Mediterranean",
    "rating": 4.7,
    "address": "Tasca Láska, Málaga, Andalusia, Spain",
    "city": "Málaga",
    "coordinates": {
      "lat": 36.706911,
      "lon": -4.431829
    },
    "lat": 36.706911,
    "lon": -4.431829
  },
  {
    "name": "Gaucho Grill",
    "topic": "Steakhouse, Mediterranean",
    "rating": 4.3,
    "address": "Gaucho Grill, Málaga, Andalusia, Spain",
    "city": "Málaga",
    "coordinates": {
      "lat": 36.710087,
      "lon": -4.416316
    },
    "lat": 36.710087,
    "lon": -4.416316
  },
  {
    "name": "Verum - El Asador de Málaga",
    "topic": "Steakhouse, Mediterranean",
    "rating": 4.7,
    "address": "Verum - El Asador de Málaga, Málaga, Andalusia, Spain",
    "city": "Málaga",
    "coordinates": {
      "lat": 36.723219,
      "lon": -4.429861
    },
    "lat": 36.723219,
    "lon": -4.429861
  },
  {
    "name": "El Pikon",
    "topic": "International, Mediterranean",
    "rating": 4.7,
    "address": "El Pikon, Málaga, Andalusia, Spain",
    "city": "Málaga",
    "coordinates": {
      "lat": 36.727284,
      "lon": -4.413393
    },
    "lat": 36.727284,
    "lon": -4.413393
  },
  {
    "name": "Tundra Fusión Burger",
    "topic": "American",
    "rating": 4.7,
    "address": "Tundra Fusión Burger, Málaga, Andalusia, Spain",
    "city": "Málaga",
    "coordinates": {
      "lat": 36.711334,
      "lon": -4.418183
    },
    "lat": 36.711334,
    "lon": -4.418183
  },
  {
    "name": "Kortxo",
    "topic": "International, Mediterranean",
    "rating": 4.7,
    "address": "Kortxo, Málaga, Andalusia, Spain",
    "city": "Málaga",
    "coordinates": {
      "lat": 36.728738,
      "lon": -4.432964
    },
    "lat": 36.728738,
    "lon": -4.432964
  },
  {
    "name": "Doña Inés",
    "topic": "Grill, Fusion",
    "rating": 4.7,
    "address": "Doña Inés, Málaga, Andalusia, Spain",
    "city": "Málaga",
    "coordinates": {
      "lat": 36.730879,
      "lon": -4.407458
    },
    "lat": 36.730879,
    "lon": -4.407458
  },
  {
    "name": "Calanmor",
    "topic": "Bar, European",
    "rating": 4.9,
    "address": "Calanmor, Málaga, Andalusia, Spain",
    "city": "Málaga",
    "coordinates": {
      "lat": 36.709543,
      "lon": -4.43563
    },
    "lat": 36.709543,
    "lon": -4.43563
  },
  {
    "name": "Radici Osteria Italiana",
    "topic": "Italian, Mediterranean",
    "rating": 4.8,
    "address": "Radici Osteria Italiana, Málaga, Andalusia, Spain",
    "city": "Málaga",
    "coordinates": {
      "lat": 36.715659,
      "lon": -4.41608
    },
    "lat": 36.715659,
    "lon": -4.41608
  },
  {
    "name": "L'expérience",
    "topic": "Bar, Mediterranean",
    "rating": 4.5,
    "address": "L'expérience, Málaga, Andalusia, Spain",
    "city": "Málaga",
    "coordinates": {
      "lat": 36.735045,
      "lon": -4.4245
    },
    "lat": 36.735045,
    "lon": -4.4245
  },
  {
    "name": "La Barra de Zapata",
    "topic": "International, Mediterranean",
    "rating": 4.8,
    "address": "La Barra de Zapata, Málaga, Andalusia, Spain",
    "city": "Málaga",
    "coordinates": {
      "lat": 36.72775,
      "lon": -4.43412
    },
    "lat": 36.72775,
    "lon": -4.43412
  },
  {
    "name": "Las Golondrinas",
    "topic": "Mediterranean, Spanish",
    "rating": 4.7,
    "address": "Las Golondrinas, Málaga, Andalusia, Spain",
    "city": "Málaga",
    "coordinates": {
      "lat": 36.727018,
      "lon": -4.417583
    },
    "lat": 36.727018,
    "lon": -4.417583
  },
  {
    "name": "Luxalad Málaga Centro",
    "topic": "Cafe, International",
    "rating": 4.8,
    "address": "Luxalad Málaga Centro, Málaga, Andalusia, Spain",
    "city": "Málaga",
    "coordinates": {
      "lat": 36.709357,
      "lon": -4.413226
    },
    "lat": 36.709357,
    "lon": -4.413226
  },
  {
    "name": "Pizzeria Italiana Vittoria",
    "topic": "Italian, Pizza",
    "rating": 4.7,
    "address": "Pizzeria Italiana Vittoria, Málaga, Andalusia, Spain",
    "city": "Málaga",
    "coordinates": {
      "lat": 36.731809,
      "lon": -4.418388
    },
    "lat": 36.731809,
    "lon": -4.418388
  },
  {
    "name": "Niña Bonita Cantina",
    "topic": "Mexican, Latin",
    "rating": 4.7,
    "address": "Niña Bonita Cantina, Málaga, Andalusia, Spain",
    "city": "Málaga",
    "coordinates": {
      "lat": 36.709932,
      "lon": -4.406885
    },
    "lat": 36.709932,
    "lon": -4.406885
  },
  {
    "name": "Amigos Grill Muelle Uno",
    "topic": "Mexican, Indian",
    "rating": 4.4,
    "address": "Amigos Grill Muelle Uno, Málaga, Andalusia, Spain",
    "city": "Málaga",
    "coordinates": {
      "lat": 36.729779,
      "lon": -4.425984
    },
    "lat": 36.729779,
    "lon": -4.425984
  },
  {
    "name": "Oliva Tapas",
    "topic": "Bar, Mediterranean",
    "rating": 4.8,
    "address": "Oliva Tapas, Málaga, Andalusia, Spain",
    "city": "Málaga",
    "coordinates": {
      "lat": 36.719151,
      "lon": -4.425283
    },
    "lat": 36.719151,
    "lon": -4.425283
  },
  {
    "name": "Andino Gastrobar La Paz",
    "topic": "Peruvian, Latin",
    "rating": 5.0,
    "address": "Andino Gastrobar La Paz, Málaga, Andalusia, Spain",
    "city": "Málaga",
    "coordinates": {
      "lat": 36.721479,
      "lon": -4.426163
    },
    "lat": 36.721479,
    "lon": -4.426163
  },
  {
    "name": "Gastrobar Bassoa",
    "topic": "Mediterranean, European",
    "rating": 4.8,
    "address": "Gastrobar Bassoa, Málaga, Andalusia, Spain",
    "city": "Málaga",
    "coordinates": {
      "lat": 36.731787,
      "lon": -4.41173
    },
    "lat": 36.731787,
    "lon": -4.41173
  },
  {
    "name": "Mura Mura Osteria",
    "topic": "Mediterranean, Contemporary",
    "rating": 4.7,
    "address": "Mura Mura Osteria, Málaga, Andalusia, Spain",
    "city": "Málaga",
    "coordinates": {
      "lat": 36.709466,
      "lon": -4.407576
    },
    "lat": 36.709466,
    "lon": -4.407576
  },
  {
    "name": "Los Marangós Molina Lario",
    "topic": "European, Spanish",
    "rating": 4.6,
    "address": "Los Marangós Molina Lario, Málaga, Andalusia, Spain",
    "city": "Málaga",
    "coordinates": {
      "lat": 36.725368,
      "lon": -4.411539
    },
    "lat": 36.725368,
    "lon": -4.411539
  },
  {
    "name": "TORO Muelle Uno",
    "topic": "Steakhouse, Mediterranean",
    "rating": 4.5,
    "address": "TORO Muelle Uno, Málaga, Andalusia, Spain",
    "city": "Málaga",
    "coordinates": {
      "lat": 36.727519,
      "lon": -4.423335
    },
    "lat": 36.727519,
    "lon": -4.423335
  },
  {
    "name": "Santa Mónica Restaurant Sánchez Pastor",
    "topic": "Mediterranean, Spanish",
    "rating": 4.7,
    "address": "Santa Mónica Restaurant Sánchez Pastor, Málaga, Andalusia, Spain",
    "city": "Málaga",
    "coordinates": {
      "lat": 36.728314,
      "lon": -4.407436
    },
    "lat": 36.728314,
    "lon": -4.407436
  },
  {
    "name": "Atrezzo",
    "topic": "Italian, Pizza",
    "rating": 4.5,
    "address": "Atrezzo, Málaga, Andalusia, Spain",
    "city": "Málaga",
    "coordinates": {
      "lat": 36.714402,
      "lon": -4.412154
    },
    "lat": 36.714402,
    "lon": -4.412154
  },
  {
    "name": "Terra Mia 2.0",
    "topic": "Italian, Pizza",
    "rating": 4.7,
    "address": "Terra Mia 2.0, Málaga, Andalusia, Spain",
    "city": "Málaga",
    "coordinates": {
      "lat": 36.722445,
      "lon": -4.421895
    },
    "lat": 36.722445,
    "lon": -4.421895
  },
  {
    "name": "Osteria Angelino dal 1899 Malaga",
    "topic": "Italian, Mediterranean",
    "rating": 4.5,
    "address": "Osteria Angelino dal 1899 Malaga, Málaga, Andalusia, Spain",
    "city": "Málaga",
    "coordinates": {
      "lat": 36.719367,
      "lon": -4.414469
    },
    "lat": 36.719367,
    "lon": -4.414469
  },
  {
    "name": "Amici Pizzería Gourmet",
    "topic": "Pizza",
    "rating": 4.7,
    "address": "Amici Pizzería Gourmet, Málaga, Andalusia, Spain",
    "city": "Málaga",
    "coordinates": {
      "lat": 36.714352,
      "lon": -4.410849
    },
    "lat": 36.714352,
    "lon": -4.410849
  },
  {
    "name": "La casa del perro",
    "topic": "Mediterranean, European",
    "rating": 4.5,
    "address": "La casa del perro, Málaga, Andalusia, Spain",
    "city": "Málaga",
    "coordinates": {
      "lat": 36.731222,
      "lon": -4.4338
    },
    "lat": 36.731222,
    "lon": -4.4338
  },
  {
    "name": "Illari Vinos y Tapas",
    "topic": "Mediterranean, Spanish",
    "rating": 4.7,
    "address": "Illari Vinos y Tapas, Málaga, Andalusia, Spain",
    "city": "Málaga",
    "coordinates": {
      "lat": 36.732749,
      "lon": -4.429084
    },
    "lat": 36.732749,
    "lon": -4.429084
  },
  {
    "name": "Mesón Alberto",
    "topic": "Spanish",
    "rating": 4.7,
    "address": "Mesón Alberto, Málaga, Andalusia, Spain",
    "city": "Málaga",
    "coordinates": {
      "lat": 36.720241,
      "lon": -4.41809
    },
    "lat": 36.720241,
    "lon": -4.41809
  },
  {
    "name": "The Great India Halal",
    "topic": "Indian",
    "rating": 4.6,
    "address": "The Great India Halal, Málaga, Andalusia, Spain",
    "city": "Málaga",
    "coordinates": {
      "lat": 36.71767,
      "lon": -4.435539
    },
    "lat": 36.71767,
    "lon": -4.435539
  },
  {
    "name": "Cantarrana Restaurante",
    "topic": "Mediterranean, Spanish",
    "rating": 4.7,
    "address": "Cantarrana Restaurante, Málaga, Andalusia, Spain",
    "city": "Málaga",
    "coordinates": {
      "lat": 36.731829,
      "lon": -4.430945
    },
    "lat": 36.731829,
    "lon": -4.430945
  },
  {
    "name": "El Envero",
    "topic": "Seafood, Mediterranean",
    "rating": 4.6,
    "address": "El Envero, Málaga, Andalusia, Spain",
    "city": "Málaga",
    "coordinates": {
      "lat": 36.712664,
      "lon": -4.412465
    },
    "lat": 36.712664,
    "lon": -4.412465
  },
  {
    "name": "El Patio Del Ángel",
    "topic": "Mediterranean, Spanish",
    "rating": 4.6,
    "address": "El Patio Del Ángel, Málaga, Andalusia, Spain",
    "city": "Málaga",
    "coordinates": {
      "lat": 36.71651,
      "lon": -4.40999
    },
    "lat": 36.71651,
    "lon": -4.40999
  },
  {
    "name": "Meson Mariano",
    "topic": "Mediterranean, Spanish",
    "rating": 4.5,
    "address": "Meson Mariano, Málaga, Andalusia, Spain",
    "city": "Málaga",
    "coordinates": {
      "lat": 36.727336,
      "lon": -4.428112
    },
    "lat": 36.727336,
    "lon": -4.428112
  },
  {
    "name": "La Antxoeta",
    "topic": "International, Mediterranean",
    "rating": 4.7,
    "address": "La Antxoeta, Málaga, Andalusia, Spain",
    "city": "Málaga",
    "coordinates": {
      "lat": 36.706605,
      "lon": -4.407958
    },
    "lat": 36.706605,
    "lon": -4.407958
  },
  {
    "name": "1981 Restaurant Gourmet",
    "topic": "Brew Pub, Cafe",
    "rating": 4.9,
    "address": "1981 Restaurant Gourmet, Málaga, Andalusia, Spain",
    "city": "Málaga",
    "coordinates": {
      "lat": 36.708868,
      "lon": -4.414798
    },
    "lat": 36.708868,
    "lon": -4.414798
  },
  {
    "name": "Santa Monica Restaurant Correo Viejo",
    "topic": "International, Mediterranean",
    "rating": 4.8,
    "address": "Santa Monica Restaurant Correo Viejo, Málaga, Andalusia, Spain",
    "city": "Málaga",
    "coordinates": {
      "lat": 36.720957,
      "lon": -4.413655
    },
    "lat": 36.720957,
    "lon": -4.413655
  },
  {
    "name": "Terraza De Las Flores",
    "topic": "Mediterranean, Spanish",
    "rating": 4.7,
    "address": "Terraza De Las Flores, Málaga, Andalusia, Spain",
    "city": "Málaga",
    "coordinates": {
      "lat": 36.727018,
      "lon": -4.417023
    },
    "lat": 36.727018,
    "lon": -4.417023
  },
  {
    "name": "Meson Iberico",
    "topic": "Mediterranean, European",
    "rating": 4.6,
    "address": "Meson Iberico, Málaga, Andalusia, Spain",
    "city": "Málaga",
    "coordinates": {
      "lat": 36.721025,
      "lon": -4.412612
    },
    "lat": 36.721025,
    "lon": -4.412612
  },
  {
    "name": "Aire Gastrobar",
    "topic": "Mediterranean, Spanish",
    "rating": 4.5,
    "address": "Aire Gastrobar, Málaga, Andalusia, Spain",
    "city": "Málaga",
    "coordinates": {
      "lat": 36.709092,
      "lon": -4.429752
    },
    "lat": 36.709092,
    "lon": -4.429752
  },
  {
    "name": "Boca Llena Teatinos",
    "topic": "European, Spanish",
    "rating": 4.5,
    "address": "Boca Llena Teatinos, Málaga, Andalusia, Spain",
    "city": "Málaga",
    "coordinates": {
      "lat": 36.727054,
      "lon": -4.427214
    },
    "lat": 36.727054,
    "lon": -4.427214
  },
  {
    "name": "Matiz",
    "topic": "Mediterranean, European",
    "rating": 4.5,
    "address": "Matiz, Málaga, Andalusia, Spain",
    "city": "Málaga",
    "coordinates": {
      "lat": 36.723747,
      "lon": -4.422202
    },
    "lat": 36.723747,
    "lon": -4.422202
  },
  {
    "name": "No Name Restaurante",
    "topic": "International, Mediterranean",
    "rating": 4.7,
    "address": "No Name Restaurante, Málaga, Andalusia, Spain",
    "city": "Málaga",
    "coordinates": {
      "lat": 36.722228,
      "lon": -4.423635
    },
    "lat": 36.722228,
    "lon": -4.423635
  },
  {
    "name": "Madeinterranea",
    "topic": "Bar, Mediterranean",
    "rating": 4.4,
    "address": "Madeinterranea, Málaga, Andalusia, Spain",
    "city": "Málaga",
    "coordinates": {
      "lat": 36.728678,
      "lon": -4.426476
    },
    "lat": 36.728678,
    "lon": -4.426476
  },
  {
    "name": "Puerto Cristal Restaurante",
    "topic": "Seafood, International",
    "rating": 4.5,
    "address": "Puerto Cristal Restaurante, Málaga, Andalusia, Spain",
    "city": "Málaga",
    "coordinates": {
      "lat": 36.727386,
      "lon": -4.428273
    },
    "lat": 36.727386,
    "lon": -4.428273
  },
  {
    "name": "La Pérgola del Mediterráneo",
    "topic": "Mediterranean, European",
    "rating": 4.7,
    "address": "La Pérgola del Mediterráneo, Málaga, Andalusia, Spain",
    "city": "Málaga",
    "coordinates": {
      "lat": 36.713842,
      "lon": -4.43278
    },
    "lat": 36.713842,
    "lon": -4.43278
  },