[
  {
    "name": "La Fonda Restaurante",
    "topic": "International, Mediterranean",
    "rating": 4.5,
    "city": "Marbella",
    "address": ""
  },
  {
    "name": "Boho Club Restaurant",
    "topic": "International, Mediterranean",
    "rating": 4.2,
    "city": "Marbella",
    "address": ""
  },
  {
    "name": "Pasticcio Marbella",
    "topic": "miSan Pedro de AlcantaraItalian, Neapolitan",
    "rating": 4.9,
    "city": "Marbella",
    "address": "Pasticcio, Calle 19A, Guadalmina Baja, Guadalmina, San Pedro Alcántara, Marbella, Costa del Sol Occidental, Málaga, Andalucía, 29678, España",
    "lat": 36.4745322,
    "lon": -5.002132
  },
  {
    "name": "Calma by Kopparberg",
    "topic": "Mediterranean, Spanish",
    "rating": 4.9,
    "city": "Marbella",
    "address": ""
  },
  {
    "name": "Cascada Cocina & Bar",
    "topic": "International, Barbecue",
    "rating": 4.8,
    "city": "Marbella",
    "address": "Cascada Cocina & Bar, Camino de Puerto Rico, Sierramar, Marbella, Costa del Sol Occidental, Málaga, Andalucía, 29601, España",
    "lat": 36.5302609,
    "lon": -4.885388
  },
  {
    "name": "Yabaof",
    "topic": "Lebanese, Healthy",
    "rating": 4.9,
    "city": "Marbella",
    "address": ""
  },
  {
    "name": "Mini India Elviria",
    "topic": "miElviriaIndian, Balti",
    "rating": 4.8,
    "city": "Marbella",
    "address": ""
  },
  {
    "name": "Timonel Marbella",
    "topic": "International, Mediterranean",
    "rating": 4.8,
    "city": "Marbella",
    "address": ""
  },
  {
    "name": "Gourmet Burger Room",
    "topic": "American, International",
    "rating": 4.7,
    "city": "Marbella",
    "address": "Gourmet Burger Room, 18, Avenida Antonio Belón, Casco antiguo, Marbella, Costa del Sol Occidental, Málaga, Andalucía, 29602, España",
    "lat": 36.5078651,
    "lon": -4.8890419
  },
  {
    "name": "Pizzeria Pacman Marbella",
    "topic": "Italian, Pizza",
    "rating": 4.9,
    "city": "Marbella",
    "address": ""
  },
  {
    "name": "Box Kitchen Marbella",
    "topic": "miPuerto BanusCafe, Mediterranean",
    "rating": 4.9,
    "city": "Marbella",
    "address": ""
  },
  {
    "name": "Angus Marbella",
    "topic": "Steakhouse",
    "rating": 4.7,
    "city": "Marbella",
    "address": "Angus, Avenida Duque de Ahumada, Casco antiguo, Marbella, Costa del Sol Occidental, Málaga, Andalucía, 29602, España",
    "lat": 36.5071691,
    "lon": -4.8885371
  },
  {
    "name": "Restaurante Playa Europa",
    "topic": "Seafood, Mediterranean",
    "rating": 4.7,
    "city": "Marbella",
    "address": ""
  },
  {
    "name": "Koi Marbella",
    "topic": "Japanese, Peruvian",
    "rating": 4.8,
    "city": "Marbella",
    "address": ""
  },
  {
    "name": "Mumbai City Indian Restaurant",
    "topic": "miNueva AndaluciaIndian",
    "rating": 4.8,
    "city": "Marbella",
    "address": ""
  },
  {
    "name": "El Txoco De Luis Salinero",
    "topic": "miPuerto BanusMediterranean, European",
    "rating": 4.7,
    "city": "Marbella",
    "address": ""
  },
  {
    "name": "La Pizza di Andre",
    "topic": "Italian, Pizza",
    "rating": 4.8,
    "city": "Marbella",
    "address": ""
  },
  {
    "name": "Nativo Restaurant",
    "topic": "Mediterranean, Spanish",
    "rating": 4.9,
    "city": "Marbella",
    "address": ""
  },
  {
    "name": "La Bodega Del Cantinero",
    "topic": "miSan Pedro de AlcantaraMediterranean, European",
    "rating": 4.8,
    "city": "Marbella",
    "address": ""
  },
  {
    "name": "Gulzar Indian Restaurant Marbella",
    "topic": "Indian, Balti",
    "rating": 4.6,
    "city": "Marbella",
    "address": ""
  },
  {
    "name": "Restaurante La Bocana",
    "topic": "miPuerto BanusSeafood, Mediterranean",
    "rating": 4.7,
    "city": "Marbella",
    "address": "La Bocana, Calle de Benabola, Marbella, Costa del Sol Occidental, Málaga, Andalucía, 29660, España",
    "lat": 36.4847182,
    "lon": -4.954518
  },
  {
    "name": "Alma de Papagayo",
    "topic": "miElviriaInternational, European",
    "rating": 4.9,
    "city": "Marbella",
    "address": ""
  },
  {
    "name": "Bistro Paloma",
    "topic": "Mediterranean, European",
    "rating": 4.7,
    "city": "Marbella",
    "address": ""
  },
  {
    "name": "Kanaloa",
    "topic": "Mediterranean, Spanish",
    "rating": 4.6,
    "city": "Marbella",
    "address": ""
  },
  {
    "name": "Mia Cafe",
    "topic": "Cafe, Mediterranean",
    "rating": 4.6,
    "city": "Marbella",
    "address": "Mia Cafe, Plaza Puente de Ronda, Casco antiguo, Marbella, Costa del Sol Occidental, Málaga, Andalucía, 29601, España",
    "lat": 36.5108811,
    "lon": -4.8852305
  },
  {
    "name": "El Boquerón Restaurant",
    "topic": "Mediterranean, Spanish",
    "rating": 4.6,
    "city": "Marbella",
    "address": ""
  },
  {
    "name": "Areia Marbella",
    "topic": "Mediterranean, Spanish",
    "rating": 4.7,
    "city": "Marbella",
    "address": ""
  },
  {
    "name": "Restaurante Back",
    "topic": "International, Mediterranean",
    "rating": 4.6,
    "city": "Marbella",
    "address": "Back, 8, Calle de Pablo Casal, Barrio Alto, Marbella, Costa del Sol Occidental, Málaga, Andalucía, 29602, España",
    "lat": 36.509135,
    "lon": -4.8945618
  },
  {
    "name": "El Candil de San Pedro",
    "topic": "miSan Pedro de AlcantaraBar, Mediterranean",
    "rating": 4.7,
    "city": "Marbella",
    "address": "El Candil, Calle Andalucía, El Ingenio, Guadalmina, San Pedro Alcántara, Marbella, Costa del Sol Occidental, Málaga, Andalucía, 29670, España",
    "lat": 36.4826788,
    "lon": -4.9913453
  },
  {
    "name": "Al Minzah",
    "topic": "Moroccan, Middle Eastern",
    "rating": 4.7,
    "city": "Marbella",
    "address": ""
  },
  {
    "name": "ERRE & Urrechu",
    "topic": "Steakhouse, Mediterranean",
    "rating": 4.6,
    "city": "Marbella",
    "address": ""
  },
  {
    "name": "El Patio De Mariscal",
    "topic": "Mediterranean, European",
    "rating": 4.6,
    "city": "Marbella",
    "address": "El Patio de Mariscal, Calle Virgen de los Dolores, Casco antiguo, Marbella, Costa del Sol Occidental, Málaga, Andalucía, 29601, España",
    "lat": 36.5109213,
    "lon": -4.8848168
  },
  {
    "name": "I was completely...Gem restaurant!!!!!!La Fonda Restaurante",
    "topic": "International, Mediterranean",
    "rating": 4.5,
    "city": "Marbella",
    "address": ""
  },
  {
    "name": "Restaurante Garum",
    "topic": "Mediterranean, European",
    "rating": 4.5,
    "city": "Marbella",
    "address": "Garum, Avenida de la Fontanilla, Marbella, Costa del Sol Occidental, Málaga, Andalucía, 29602, España",
    "lat": 36.5075444,
    "lon": -4.8944743
  },
  {
    "name": "Jacks Smokehouse",
    "topic": "miPuerto BanusAmerican, Bar",
    "rating": 4.3,
    "city": "Marbella",
    "address": ""
  },
  {
    "name": "Tempora",
    "topic": "International, Mediterranean",
    "rating": 4.7,
    "city": "Marbella",
    "address": ""
  },
  {
    "name": "The Orange Tree",
    "topic": "Mediterranean, European",
    "rating": 4.6,
    "city": "Marbella",
    "address": ""
  },
  {
    "name": "Cafe Yanx",
    "topic": "miNueva AndaluciaMexican, American",
    "rating": 4.5,
    "city": "Marbella",
    "address": "Yanx, Centro Plaza, Aldea Blanca, San Pedro Alcántara, Marbella, Costa del Sol Occidental, Málaga, Andalucía, 29660, España",
    "lat": 36.4931667,
    "lon": -4.959847
  },
  {
    "name": "Buenos Aires Steakhouse",
    "topic": "Steakhouse, Barbecue",
    "rating": 4.7,
    "city": "Marbella",
    "address": ""
  },
  {
    "name": "La Ribera Restaurante",
    "topic": "Mediterranean, European",
    "rating": 4.7,
    "city": "Marbella",
    "address": ""
  },
  {
    "name": "The Harbour Bar & Restaurant Marbella",
    "topic": "Seafood, International",
    "rating": 4.6,
    "city": "Marbella",
    "address": ""
  },
  {
    "name": "Origen Asador Argentino",
    "topic": "Steakhouse, Barbecue",
    "rating": 4.5,
    "city": "Marbella",
    "address": ""
  },
  {
    "name": "Garnacha",
    "topic": "International, Mediterranean",
    "rating": 4.5,
    "city": "Marbella",
    "address": ""
  },
  {
    "name": "Restaurante Paellas y Mas",
    "topic": "Mediterranean, European",
    "rating": 4.5,
    "city": "Marbella",
    "address": ""
  },
  {
    "name": "Ancora Restaurant",
    "topic": "Mediterranean, European",
    "rating": 4.7,
    "city": "Marbella",
    "address": ""
  },
  {
    "name": "Ta-Kumi Marbella",
    "topic": "Japanese, Sushi",
    "rating": 4.5,
    "city": "Marbella",
    "address": "Ta-Kumi, Calle de Pablo Casal, Alhambra del Mar, Marbella, Costa del Sol Occidental, Málaga, Andalucía, 29602, España",
    "lat": 36.509076,
    "lon": -4.8966251
  },
  {
    "name": "Casa Eladio",
    "topic": "Mediterranean, European",
    "rating": 4.5,
    "city": "Marbella",
    "address": ""
  },
  {
    "name": "Arco Tapas Bar",
    "topic": "Mediterranean, European",
    "rating": 4.6,
    "city": "Marbella",
    "address": "Arco Tapas Bar, 16, Calle Peral, Casco antiguo, Marbella, Costa del Sol Occidental, Málaga, Andalucía, 29601, España",
    "lat": 36.5106019,
    "lon": -4.8862197
  },
  {
    "name": "La Ola",
    "topic": "Seafood, Mediterranean",
    "rating": 4.5,
    "city": "Marbella",
    "address": ""
  },
  {
    "name": "Sisters restaurant",
    "topic": "International, Mediterranean",
    "rating": 4.7,
    "city": "Marbella",
    "address": ""
  },
  {
    "name": "Maa Indian Cuisine",
    "topic": "miNueva AndaluciaIndian, Asian",
    "rating": 4.7,
    "city": "Marbella",
    "address": ""
  },
  {
    "name": "Trattoria L'Impronta",
    "topic": "miSan Pedro de AlcantaraItalian, European",
    "rating": 4.6,
    "city": "Marbella",
    "address": ""
  },
  {
    "name": "Jaipur",
    "topic": "Indian, Balti",
    "rating": 4.4,
    "city": "Marbella",
    "address": "Jaipur, 3, Avenida Duque de Ahumada, Casco antiguo, Marbella, Costa del Sol Occidental, Málaga, Andalucía, 29602, España",
    "lat": 36.5070682,
    "lon": -4.8857665
  },
  {
    "name": "Bombay Grill Indian restaurant",
    "topic": "miSan Pedro de AlcantaraIndian, Asian",
    "rating": 4.7,
    "city": "Marbella",
    "address": ""
  },
  {
    "name": "Restaurante Messina",
    "topic": "International, Mediterranean",
    "rating": 4.6,
    "city": "Marbella",
    "address": ""
  },
  {
    "name": "Bar El Estrecho",
    "topic": "Bar, Mediterranean",
    "rating": 4.4,
    "city": "Marbella",
    "address": "El Estrecho, 12, Calle de San Lazaro, Casco antiguo, Marbella, Costa del Sol Occidental, Málaga, Andalucía, 29600, España",
    "lat": 36.5097676,
    "lon": -4.8859494
  },
  {
    "name": "La Habana Lounge",
    "topic": "miPuerto BanusSeafood, International",
    "rating": 4.5,
    "city": "Marbella",
    "address": "La Habana Lounge, Calle de Benabola, Marbella, Costa del Sol Occidental, Málaga, Andalucía, 29660, España",
    "lat": 36.4851204,
    "lon": -4.9554839
  },
  {
    "name": "Restaurante Da Sergio",
    "topic": "Italian, Seafood",
    "rating": 4.5,
    "city": "Marbella",
    "address": "Restaurante da Sergio, Avenida Vistamar, El Rosario, Rícmar, Marbella, Costa del Sol Occidental, Málaga, Andalucía, 29604, España",
    "lat": 36.4968848,
    "lon": -4.8049805
  },
  {
    "name": "Taj Mahal Marbella",
    "topic": "miNueva AndaluciaIndian, Asian",
    "rating": 4.6,
    "city": "Marbella",
    "address": ""
  },
  {
    "name": "Chiringuito Tonys",
    "topic": "miElviriaSeafood, Mediterranean",
    "rating": 4.5,
    "city": "Marbella",
    "address": ""
  },
  {
    "name": "Masala Elviria",
    "topic": "miElviriaIndian, Asian",
    "rating": 4.5,
    "city": "Marbella",
    "address": ""
  },
  {
    "name": "The Hogan Stand",
    "topic": "miSan Pedro de AlcantaraIrish, Bar",
    "rating": 4.5,
    "city": "Marbella",
    "address": ""
  },
  {
    "name": "Bar El Cordobes",
    "topic": "Seafood, Mediterranean",
    "rating": 4.4,
    "city": "Marbella",
    "address": ""
  },
  {
    "name": "Cibo Trattoria Marbella",
    "topic": "Italian, Pizza",
    "rating": 4.3,
    "city": "Marbella",
    "address": ""
  },
  {
    "name": "La Bodega del Mar",
    "topic": "Bar, Mediterranean",
    "rating": 4.4,
    "city": "Marbella",
    "address": ""
  },
  {
    "name": "Restaurante Alfredo",
    "topic": "miSan Pedro de AlcantaraMediterranean, Spanish",
    "rating": 4.2,
    "city": "Marbella",
    "address": "Alfredo, Calle Andalucía, El Ingenio, Guadalmina, San Pedro Alcántara, Marbella, Costa del Sol Occidental, Málaga, Andalucía, 29670, España",
    "lat": 36.4824857,
    "lon": -4.9914234
  },
  {
    "name": "Andala Marbella",
    "topic": "Mediterranean, Spanish",
    "rating": 4.9,
    "city": "Marbella",
    "address": ""
  },
  {
    "name": "4 Marbella",
    "topic": "Italian, Pizza",
    "rating": 4.8,
    "city": "Marbella",
    "address": "Nueva Luz, 4, Calle Castilla, Salto del Agua, San Pedro Alcántara, Marbella, Costa del Sol Occidental, Málaga, Andalucía, 29670, España",
    "lat": 36.4903956,
    "lon": -4.9909909
  },
  {
    "name": "Restaurante Merendero Cristina",
    "topic": "miElviriaSeafood, Mediterranean",
    "rating": 4.2,
    "city": "Marbella",
    "address": "Merendero Cristina, Calle de las Nereidas, Urbanización Marbesa, Marbella, Costa del Sol Occidental, Málaga, Andalucía, 29604, España",
    "lat": 36.488422,
    "lon": -4.769246
  },
  {
    "name": "Los Farolillos",
    "topic": "miNueva AndaluciaItalian, Mediterranean",
    "rating": 4.5,
    "city": "Marbella",
    "address": ""
  },
  {
    "name": "Ichiban",
    "topic": "Japanese, Sushi",
    "rating": 4.4,
    "city": "Marbella",
    "address": "Ichiban, 22, Avenida Antonio Belón, Casco antiguo, Marbella, Costa del Sol Occidental, Málaga, Andalucía, 29602, España",
    "lat": 36.5078118,
    "lon": -4.889316
  },
  {
    "name": "Rococelli Ristorante",
    "topic": "miPuerto BanusItalian, Pizza",
    "rating": 4.3,
    "city": "Marbella",
    "address": ""
  },
  {
    "name": "Lekune",
    "topic": "Mediterranean, European",
    "rating": 4.3,
    "city": "Marbella",
    "address": "Lekune, Calle de Ramón Gómez de la Serna, Miraflores, Marbella, Costa del Sol Occidental, Málaga, Andalucía, 29602, España",
    "lat": 36.5098557,
    "lon": -4.8946135
  },
  {
    "name": "Karbó Asador Burger & Pizza Grill",
    "topic": "American, Steakhouse",
    "rating": 4.8,
    "city": "Marbella",
    "address": ""
  },
  {
    "name": "Casa Blanca",
    "topic": "Bar, Mediterranean",
    "rating": 4.2,
    "city": "Marbella",
    "address": "Casa Kobe, 7, Plaza de la Orquide, Aldea Blanca, San Pedro Alcántara, Marbella, Costa del Sol Occidental, Málaga, Andalucía, 29600, España",
    "lat": 36.4889148,
    "lon": -4.9643416
  },
  {
    "name": "Alberts Cabopino",
    "topic": "Mediterranean, European",
    "rating": 4.2,
    "city": "Marbella",
    "address": ""
  },
  {
    "name": "La Taberna del Pintxo Marbella",
    "topic": "International, Mediterranean",
    "rating": 4.2,
    "city": "Marbella",
    "address": "La Taberna del Pintxo, Avenida Miguel Cano, Casco antiguo, Marbella, Costa del Sol Occidental, Málaga, Andalucía, 29602, España",
    "lat": 36.5077476,
    "lon": -4.8871356
  },
  {
    "name": "Restaurante La Red",
    "topic": "Seafood, Mediterranean",
    "rating": 4.2,
    "city": "Marbella",
    "address": ""
  },
  {
    "name": "Restaurante Candela Marbella",
    "topic": "International, Spanish",
    "rating": 4.7,
    "city": "Marbella",
    "address": ""
  },
  {
    "name": "Brasserie El Marques",
    "topic": "miSan Pedro de AlcantaraDutch, Bar",
    "rating": 4.5,
    "city": "Marbella",
    "address": ""
  },
  {
    "name": "Restaurante El Lago",
    "topic": "International, Mediterranean",
    "rating": 4.4,
    "city": "Marbella",
    "address": "El Lago, Avenida de las Cumbres, Elviria del sol, Elviria, Rícmar, Marbella, Costa del Sol Occidental, Málaga, Andalucía, 29604, España",
    "lat": 36.5060942,
    "lon": -4.7794825
  },
  {
    "name": "Albert & Simon",
    "topic": "miSan Pedro de AlcantaraMediterranean, European",
    "rating": 4.5,
    "city": "Marbella",
    "address": ""
  },
  {
    "name": "Gold Puerto Banús",
    "topic": "miPuerto BanusItalian, Pizza",
    "rating": 4.3,
    "city": "Marbella",
    "address": ""
  },
  {
    "name": "Bar Altamirano",
    "topic": "Spanish, Seafood",
    "rating": 4.1,
    "city": "Marbella",
    "address": ""
  },
  {
    "name": "Sensations Sushi Bar",
    "topic": "miNueva AndaluciaJapanese, Sushi",
    "rating": 4.6,
    "city": "Marbella",
    "address": ""
  },
  {
    "name": "Zozoï",
    "topic": "French, Mediterranean",
    "rating": 4.3,
    "city": "Marbella",
    "address": "Zozoï, Calle Misericordia, Casco antiguo, Marbella, Costa del Sol Occidental, Málaga, Andalucía, 29601, España",
    "lat": 36.50964,
    "lon": -4.883304
  },
  {
    "name": "Luxalad Marbella",
    "topic": "International, European",
    "rating": 5.0,
    "city": "Marbella",
    "address": ""
  },
  {
    "name": "Hacienda Patagónica",
    "topic": "Steakhouse, Barbecue",
    "rating": 4.2,
    "city": "Marbella",
    "address": ""
  },
  {
    "name": "Maurya Indian Restaurant Sanpedro",
    "topic": "Indian",
    "rating": 4.9,
    "city": "Marbella",
    "address": ""
  },
  {
    "name": "Pizzeria Picasso",
    "topic": "miPuerto BanusItalian, Pizza",
    "rating": 4.1,
    "city": "Marbella",
    "address": "Pizzeria Picasso, Calle Ribera, Marbella, Costa del Sol Occidental, Málaga, Andalucía, 29660, España",
    "lat": 36.4873918,
    "lon": -4.95268
  },
  {
    "name": "Palo Cortado Puerto Banús",
    "topic": "miPuerto BanusBar, Mediterranean",
    "rating": 4.7,
    "city": "Marbella",
    "address": ""
  },
  {
    "name": "Fujiumi Elviria",
    "topic": "Japanese, Healthy",
    "rating": 4.7,
    "city": "Marbella",
    "address": "Fujiumi, Avenida Valeriano Rodríguez, Elviria, Marbella, Costa del Sol Occidental, Málaga, Andalucía, 29604, España",
    "lat": 36.4959433,
    "lon": -4.7763487
  },
  {
    "name": "SOUL Nueva Alcantara",
    "topic": "miSan Pedro de AlcantaraMediterranean, European",
    "rating": 4.7,
    "city": "Marbella",
    "address": ""
  }
]