[
  {
    "name": "Sibuya Urban Sushi Bar Huelva",
    "topic": "Japanese, Sushi",
    "rating": 4.7,
    "city": "Huelva",
    "address": ""
  },
  {
    "name": "Azabache",
    "topic": "Mediterranean, European",
    "rating": 4.5,
    "city": "Huelva",
    "address": "Bar Restaurante Azabache, Calle Vázquez López, Huelva, Comarca Metropolitana de Huelva, Huelva, Andalucía, 21001, España",
    "lat": 37.255314,
    "lon": -6.95214
  },
  {
    "name": "Bar Taberna Er Chiclanero",
    "topic": "Bar, Seafood",
    "rating": 4.7,
    "city": "Huelva",
    "address": ""
  },
  {
    "name": "Masero",
    "topic": "Mediterranean, Spanish",
    "rating": 4.7,
    "city": "Huelva",
    "address": "Cueva Masero, Camino del Rincón, Fuentes de León, Sierra de Huelva, Badajoz, Extremadura, España",
    "lat": 38.0258849,
    "lon": -6.4953842
  },
  {
    "name": "La Florida",
    "topic": "Spanish, Healthy",
    "rating": 4.7,
    "city": "Huelva",
    "address": "La Florida, Valverde del Camino, El Andévalo, Huelva, Andalucía, España",
    "lat": 37.5239545,
    "lon": -6.7046554
  },
  {
    "name": "Buena Vida Huelva",
    "topic": "Mediterranean, Spanish",
    "rating": 4.7,
    "city": "Huelva",
    "address": ""
  },
  {
    "name": "Mar de Altura",
    "topic": "Mediterranean, Spanish",
    "rating": 4.6,
    "city": "Huelva",
    "address": ""
  },
  {
    "name": "Bar Restaurante Juan Jose",
    "topic": "Mediterranean, Spanish",
    "rating": 4.3,
    "city": "Huelva",
    "address": ""
  },
  {
    "name": "Empanadas Malvón Huelva",
    "topic": "Fast Food, Argentinean",
    "rating": 4.9,
    "city": "Huelva",
    "address": "Malvón, Calle Arquitecto Pérez Carasa, Huelva, Comarca Metropolitana de Huelva, Huelva, Andalucía, 21003, España",
    "lat": 37.2562074,
    "lon": -6.9507864
  },
  {
    "name": "Bar Pappis",
    "topic": "Mediterranean, Spanish",
    "rating": 4.5,
    "city": "Huelva",
    "address": ""
  },
  {
    "name": "Gastrobar Cosas Buenas",
    "topic": "Mediterranean, European",
    "rating": 4.7,
    "city": "Huelva",
    "address": ""
  },
  {
    "name": "La Florida Centro",
    "topic": "Mediterranean, Spanish",
    "rating": 4.9,
    "city": "Huelva",
    "address": ""
  },
  {
    "name": "kalaka vinos y tapas",
    "topic": "Mediterranean, European",
    "rating": 4.2,
    "city": "Huelva",
    "address": ""
  },
  {
    "name": "Bar Taperia Entre Amigos",
    "topic": "Bar, Mediterranean",
    "rating": 4.4,
    "city": "Huelva",
    "address": ""
  },
  {
    "name": "Pura Huelva",
    "topic": "Seafood, Mediterranean",
    "rating": 4.6,
    "city": "Huelva",
    "address": "Playa de Santa Pura, Lepe, Costa Occidental, Huelva, Andalucía, España",
    "lat": 37.2065409,
    "lon": -7.1877968
  },
  {
    "name": "El Portichuelo",
    "topic": "Mediterranean, European",
    "rating": 4.0,
    "city": "Huelva",
    "address": ""
  },
  {
    "name": "Restaurante La Fonda De María Mandao",
    "topic": "Mediterranean, European",
    "rating": 4.3,
    "city": "Huelva",
    "address": ""
  },
  {
    "name": "Noviembre Tapas y Vinos",
    "topic": "Mediterranean, European",
    "rating": 4.3,
    "city": "Huelva",
    "address": ""
  },
  {
    "name": "La Tribu",
    "topic": "Cafe, Mediterranean",
    "rating": 4.5,
    "city": "Huelva",
    "address": "La Tribu, Avenida Alcalde Pedro Rodríguez González, Huelva, Comarca Metropolitana de Huelva, Huelva, Andalucía, 21005, España",
    "lat": 37.2718371,
    "lon": -6.9297769
  },
  {
    "name": "La Teja",
    "topic": "Mediterranean, Spanish",
    "rating": 4.1,
    "city": "Huelva",
    "address": "La Teja, Almonte, El Condado, Huelva, Andalucía, España",
    "lat": 37.2479536,
    "lon": -6.597892
  },
  {
    "name": "Bar los Maestres",
    "topic": "Bars & Pubs, Seafood",
    "rating": 4.7,
    "city": "Huelva",
    "address": "Bar Los Maestres, Avenida de Italia, Huelva, Comarca Metropolitana de Huelva, Huelva, Andalucía, 21002, España",
    "lat": 37.2558266,
    "lon": -6.9567105
  },
  {
    "name": "Parábola Restaurante",
    "topic": "Brew Pub, International",
    "rating": 4.8,
    "city": "Huelva",
    "address": ""
  },
  {
    "name": "Coma Tapas&Punto",
    "topic": "Mediterranean, Spanish",
    "rating": 4.4,
    "city": "Huelva",
    "address": "Tapas&Punto Coma, Calle Pablo Rada, Huelva, Comarca Metropolitana de Huelva, Huelva, Andalucía, 21003, España",
    "lat": 37.2588305,
    "lon": -6.9497829
  },
  {
    "name": "Restaurante Gran Vía Uno",
    "topic": "Mediterranean, Spanish",
    "rating": 4.2,
    "city": "Huelva",
    "address": "Gran Vía Uno, 1, Avenida de Martín Alonso Pinzón, Huelva, Comarca Metropolitana de Huelva, Huelva, Andalucía, 21003, España",
    "lat": 37.2568899,
    "lon": -6.9506983
  },
  {
    "name": "Albero Gastro y Folklore",
    "topic": "Mediterranean, Spanish",
    "rating": 4.3,
    "city": "Huelva",
    "address": ""
  },
  {
    "name": "La Bohemia",
    "topic": "Mediterranean, European",
    "rating": 4.1,
    "city": "Huelva",
    "address": ""
  },
  {
    "name": "Bar Casa Manuela",
    "topic": "Mediterranean, Spanish",
    "rating": 4.5,
    "city": "Huelva",
    "address": ""
  },
  {
    "name": "Las Meigas",
    "topic": "Japanese, Mediterranean",
    "rating": 4.4,
    "city": "Huelva",
    "address": ""
  },
  {
    "name": "Restaurante Macha",
    "topic": "Seafood, Mediterranean",
    "rating": 4.0,
    "city": "Huelva",
    "address": "La Macha, Plaza de Bajamar, La Antilla, Lepe, Costa Occidental, Huelva, Andalucía, 21449, España",
    "lat": 37.2054324,
    "lon": -7.2175023
  },
  {
    "name": "Charlotte Huelva",
    "topic": "Mediterranean, Spanish",
    "rating": 4.0,
    "city": "Huelva",
    "address": ""
  },
  {
    "name": "Amor Amar Puerto",
    "topic": "Mediterranean, Spanish",
    "rating": 4.4,
    "city": "Huelva",
    "address": ""
  },
  {
    "name": "Bar Jerez",
    "topic": "Mediterranean, European",
    "rating": 4.7,
    "city": "Huelva",
    "address": ""
  },
  {
    "name": "Restaurante Don Quijote",
    "topic": "Mediterranean, Spanish",
    "rating": 4.2,
    "city": "Huelva",
    "address": ""
  },
  {
    "name": "Bar Paco Moreno",
    "topic": "Seafood, Spanish",
    "rating": 4.0,
    "city": "Huelva",
    "address": ""
  },
  {
    "name": "Royal Tandoori Indian Restaurant",
    "topic": "Indian, Healthy",
    "rating": 4.7,
    "city": "Huelva",
    "address": ""
  },
  {
    "name": "Cerveceria El Gallo Negro",
    "topic": "Mediterranean, Spanish",
    "rating": 4.4,
    "city": "Huelva",
    "address": "Cervecería El Gallo Negro, Plaza de Quintero Báez, Huelva, Comarca Metropolitana de Huelva, Huelva, Andalucía, 21003, España",
    "lat": 37.2583629,
    "lon": -6.9498513
  },
  {
    "name": "Rocataliata",
    "topic": "Mediterranean, Spanish",
    "rating": 4.1,
    "city": "Huelva",
    "address": "Rocataliata, 44, Calle Rico, Huelva, Comarca Metropolitana de Huelva, Huelva, Andalucía, 21003, España",
    "lat": 37.254497,
    "lon": -6.9531056
  },
  {
    "name": "Bar La Estrella",
    "topic": "Mediterranean, Spanish",
    "rating": 4.4,
    "city": "Huelva",
    "address": "Bar La Estrella, Calle Méndez Núñez, Huelva, Comarca Metropolitana de Huelva, Huelva, Andalucía, 21003, España",
    "lat": 37.2581076,
    "lon": -6.9523961
  },
  {
    "name": "El Rinconcito Huelva",
    "topic": "Mediterranean, European",
    "rating": 4.0,
    "city": "Huelva",
    "address": "El Rinconcito, Calle Padre Marchena, Huelva, Comarca Metropolitana de Huelva, Huelva, Andalucía, 21003, España",
    "lat": 37.255544,
    "lon": -6.9471311
  },
  {
    "name": "El Rincon De Ana",
    "topic": "Bars & Pubs, Spanish",
    "rating": 4.7,
    "city": "Huelva",
    "address": ""
  },
  {
    "name": "El Rincon de La Rocina",
    "topic": "Mediterranean",
    "rating": 4.0,
    "city": "Huelva",
    "address": ""
  },
  {
    "name": "Pika Pika Tapas",
    "topic": "Mediterranean, Spanish",
    "rating": 4.3,
    "city": "Huelva",
    "address": ""
  },
  {
    "name": "Nómada Gran Vía",
    "topic": "Italian, Fusion",
    "rating": 4.5,
    "city": "Huelva",
    "address": ""
  },
  {
    "name": "Bar Eclipse",
    "topic": "Mediterranean, Spanish",
    "rating": 4.4,
    "city": "Huelva",
    "address": ""
  },
  {
    "name": "Smoker barbacoa",
    "topic": "Barbecue",
    "rating": 5.0,
    "city": "Huelva",
    "address": ""
  },
  {
    "name": "Taberna El Condado",
    "topic": "Mediterranean, Spanish",
    "rating": 4.0,
    "city": "Huelva",
    "address": "Taberna de Manuela, Paseo Marismeño, El Rocío, Almonte, El Condado, Huelva, Andalucía, 21750, España",
    "lat": 37.1311578,
    "lon": -6.4857998
  },
  {
    "name": "Restaurante Pizzeria Damichi",
    "topic": "Italian, Pizza",
    "rating": 4.0,
    "city": "Huelva",
    "address": ""
  },
  {
    "name": "Bodega Madreana",
    "topic": "Mediterranean, Spanish",
    "rating": 4.3,
    "city": "Huelva",
    "address": "Bodega Madreana, Plaza de la Virgen del Refugio, Huelva, Comarca Metropolitana de Huelva, Huelva, Andalucía, 21003, España",
    "lat": 37.2591763,
    "lon": -6.9491874
  },
  {
    "name": "La Tagliatella Huelva",
    "topic": "Italian, Mediterranean",
    "rating": 4.8,
    "city": "Huelva",
    "address": ""
  },
  {
    "name": "Armaxokera",
    "topic": "Mediterranean, Spanish",
    "rating": 4.1,
    "city": "Huelva",
    "address": ""
  },
  {
    "name": "Marijata",
    "topic": "Mediterranean, Spanish",
    "rating": 4.4,
    "city": "Huelva",
    "address": "Marijata, Nuevo Portil, Cartaya, Costa Occidental, Huelva, Andalucía, 21459, España",
    "lat": 37.227538,
    "lon": -7.0785114
  },
  {
    "name": "El Camilo de la Merced",
    "topic": "Italian, Pizza",
    "rating": 4.0,
    "city": "Huelva",
    "address": ""
  },
  {
    "name": "Restaurante Galería Como En Casa",
    "topic": "European, Spanish",
    "rating": 4.5,
    "city": "Huelva",
    "address": ""
  },
  {
    "name": "Gastrobar Costa de la Luz",
    "topic": "Mediterranean, Spanish",
    "rating": 4.7,
    "city": "Huelva",
    "address": ""
  },
  {
    "name": "Noodlemania Urban Food",
    "topic": "Japanese, Fast Food",
    "rating": 4.2,
    "city": "Huelva",
    "address": ""
  },
  {
    "name": "La Carmelina",
    "topic": "Mediterranean, Spanish",
    "rating": 4.5,
    "city": "Huelva",
    "address": ""
  },
  {
    "name": "Restaurante El Palangre",
    "topic": "International, Mediterranean",
    "rating": 3.9,
    "city": "Huelva",
    "address": ""
  },
  {
    "name": "Bar La Paloma",
    "topic": "Mediterranean, Spanish",
    "rating": 4.4,
    "city": "Huelva",
    "address": ""
  },
  {
    "name": "El Tercer Tiempo",
    "topic": "Brew Pub, International",
    "rating": 4.5,
    "city": "Huelva",
    "address": ""
  },
  {
    "name": "Lemon Tree Gastrobar",
    "topic": "American, Mediterranean",
    "rating": 4.6,
    "city": "Huelva",
    "address": ""
  },
  {
    "name": "Pizzería La Favorita",
    "topic": "Italian, Pizza",
    "rating": 4.0,
    "city": "Huelva",
    "address": ""
  },
  {
    "name": "La Traviesa Food&Cocktail Huelva",
    "topic": "Mediterranean, Spanish",
    "rating": 4.3,
    "city": "Huelva",
    "address": ""
  },
  {
    "name": "Burguer Hermanos Rodríguez",
    "topic": "American, German",
    "rating": 4.0,
    "city": "Huelva",
    "address": ""
  },
  {
    "name": "Casa Aconde",
    "topic": "European, Spanish",
    "rating": 4.2,
    "city": "Huelva",
    "address": ""
  },
  {
    "name": "Casa Grego",
    "topic": "Seafood, Mediterranean",
    "rating": 4.3,
    "city": "Huelva",
    "address": ""
  },
  {
    "name": "La Gamberra",
    "topic": "Bar, Mediterranean",
    "rating": 4.0,
    "city": "Huelva",
    "address": "La Gamberra, Plaza de Isabel la Católica, Huelva, Comarca Metropolitana de Huelva, Huelva, Andalucía, 21003, España",
    "lat": 37.2544048,
    "lon": -6.9487488
  },
  {
    "name": "Bar-Restaurante Rezon",
    "topic": "Seafood, Mediterranean",
    "rating": 4.8,
    "city": "Huelva",
    "address": ""
  },
  {
    "name": "Cervecería El Reencuentro Cafetería",
    "topic": "Spanish",
    "rating": 4.8,
    "city": "Huelva",
    "address": ""
  },
  {
    "name": "Abacería La Bronce",
    "topic": "Mediterranean, Barbecue",
    "rating": 4.5,
    "city": "Huelva",
    "address": ""
  },
  {
    "name": "Tabanco Don Pablo",
    "topic": "Cafe, Mediterranean",
    "rating": 4.5,
    "city": "Huelva",
    "address": ""
  },
  {
    "name": "Casa Calviño",
    "topic": "Spanish",
    "rating": 4.1,
    "city": "Huelva",
    "address": ""
  },
  {
    "name": "Restaurante La Tabernita",
    "topic": "Spanish",
    "rating": 4.0,
    "city": "Huelva",
    "address": ""
  },
  {
    "name": "El Rey del Pollo Asado",
    "topic": "Steakhouse, Fast Food",
    "rating": 4.2,
    "city": "Huelva",
    "address": ""
  },
  {
    "name": "Bossé Bistró",
    "topic": "Spanish",
    "rating": 4.8,
    "city": "Huelva",
    "address": ""
  },
  {
    "name": "Bar Los Varales",
    "topic": "Mediterranean, Spanish",
    "rating": 4.2,
    "city": "Huelva",
    "address": ""
  },
  {
    "name": "Restaurante Equus",
    "topic": "Mediterranean",
    "rating": 4.7,
    "city": "Huelva",
    "address": ""
  },
  {
    "name": "Tabernas Azul y Plata",
    "topic": "International, Mediterranean",
    "rating": 4.5,
    "city": "Huelva",
    "address": ""
  },
  {
    "name": "5 Sentidos",
    "topic": "Bar, Cafe",
    "rating": 4.0,
    "city": "Huelva",
    "address": ""
  },
  {
    "name": "Burguer bar Las Colombianas",
    "topic": "Brazilian, European",
    "rating": 5.0,
    "city": "Huelva",
    "address": ""
  },
  {
    "name": "Makkadamia Churrería",
    "topic": "French",
    "rating": 4.0,
    "city": "Huelva",
    "address": ""
  },
  {
    "name": "Pizzería Yomy",
    "topic": "Mediterranean, Spanish",
    "rating": 5.0,
    "city": "Huelva",
    "address": ""
  }
]