[
  {
    "name": "Alhambra",
    "city": "Granada",
    "rating": 9.5,
    "visit_duration_hours": 3.0,
    "entrance_fee": "€14",
    "category": "Palace",
    "coordinates": {"lat": 37.1760, "lon": -3.5881},
    "description": "Stunning Moorish palace and fortress complex, UNESCO World Heritage Site",
    "is_top_attraction": true,
    "wikipedia": "en:Alhambra",
    "source": "Curated"
  },
  {
    "name": "Mezquita-Catedral de Córdoba",
    "city": "Córdoba",
    "rating": 9.3,
    "visit_duration_hours": 1.5,
    "entrance_fee": "€11",
    "category": "Religious",
    "coordinates": {"lat": 37.8788, "lon": -4.7797},
    "description": "Iconic mosque-cathedral with forest of columns, UNESCO World Heritage Site",
    "is_top_attraction": true,
    "wikipedia": "en:Mosque–Cathedral of Córdoba",
    "source": "Curated"
  },
  {
    "name": "Real Alcázar de Sevilla",
    "city": "Seville",
    "rating": 9.2,
    "visit_duration_hours": 2.0,
    "entrance_fee": "€13.50",
    "category": "Palace",
    "coordinates": {"lat": 37.3833, "lon": -5.9931},
    "description": "Royal palace with stunning Mudéjar architecture and beautiful gardens",
    "is_top_attraction": true,
    "wikipedia": "en:Alcázar of Seville",
    "source": "Curated"
  },
  {
    "name": "Catedral de Sevilla",
    "city": "Seville",
    "rating": 9.0,
    "visit_duration_hours": 2.0,
    "entrance_fee": "€11",
    "category": "Religious",
    "coordinates": {"lat": 37.3858, "lon": -5.9933},
    "description": "Largest Gothic cathedral in the world, houses tomb of Christopher Columbus",
    "is_top_attraction": true,
    "wikipedia": "en:Seville Cathedral",
    "source": "Curated"
  },
  {
    "name": "La Giralda",
    "city": "Seville",
    "rating": 8.9,
    "visit_duration_hours": 0.5,
    "entrance_fee": "Included with Cathedral",
    "category": "Architecture",
    "coordinates": {"lat": 37.3862, "lon": -5.9925},
    "description": "Iconic bell tower with panoramic views of Seville",
    "is_top_attraction": true,
    "wikipedia": "en:Giralda",
    "source": "Curated"
  },
  {
    "name": "Generalife",
    "city": "Granada",
    "rating": 8.9,
    "visit_duration_hours": 1.5,
    "entrance_fee": "Included with Alhambra",
    "category": "Gardens",
    "coordinates": {"lat": 37.1789, "lon": -3.5845},
    "description": "Beautiful summer palace and gardens of the Nasrid rulers",
    "is_top_attraction": true,
    "wikipedia": "en:Generalife",
    "source": "Curated"
  },
  {
    "name": "Plaza de España",
    "city": "Seville",
    "rating": 8.8,
    "visit_duration_hours": 1.0,
    "entrance_fee": "Free",
    "category": "Architecture",
    "coordinates": {"lat": 37.3772, "lon": -5.9869},
    "description": "Stunning Renaissance Revival plaza built for 1929 Ibero-American Exposition",
    "is_top_attraction": true,
    "wikipedia": "en:Plaza de España, Seville",
    "source": "Curated"
  },
  {
    "name": "Albaicín",
    "city": "Granada",
    "rating": 8.7,
    "visit_duration_hours": 2.0,
    "entrance_fee": "Free",
    "category": "Neighborhood",
    "coordinates": {"lat": 37.1814, "lon": -3.5937},
    "description": "Historic Moorish quarter with narrow winding streets and stunning Alhambra views",
    "is_top_attraction": true,
    "wikipedia": "en:Albaicín",
    "source": "Curated"
  },
  {
    "name": "Alcazaba de Málaga",
    "city": "Málaga",
    "rating": 8.5,
    "visit_duration_hours": 1.5,
    "entrance_fee": "€3.50",
    "category": "Castle",
    "coordinates": {"lat": 36.7213, "lon": -4.4156},
    "description": "Well-preserved Moorish fortress overlooking the city and harbor",
    "is_top_attraction": true,
    "wikipedia": "en:Alcazaba of Málaga",
    "source": "Curated"
  },
  {
    "name": "Museo Picasso Málaga",
    "city": "Málaga",
    "rating": 8.4,
    "visit_duration_hours": 2.0,
    "entrance_fee": "€9",
    "category": "Museum",
    "coordinates": {"lat": 36.7213, "lon": -4.4188},
    "description": "Museum dedicated to Málaga-born Pablo Picasso with extensive collection",
    "is_top_attraction": true,
    "wikipedia": "en:Museo Picasso Málaga",
    "source": "Curated"
  },
  {
    "name": "Medina Azahara",
    "city": "Córdoba",
    "rating": 8.6,
    "visit_duration_hours": 2.0,
    "entrance_fee": "Free for EU citizens",
    "category": "Archaeological",
    "coordinates": {"lat": 37.8914, "lon": -4.8658},
    "description": "Vast ruins of 10th-century palace-city, UNESCO World Heritage Site",
    "is_top_attraction": true,
    "wikipedia": "en:Medina Azahara",
    "source": "Curated"
  },
  {
    "name": "Catedral de Granada",
    "city": "Granada",
    "rating": 8.3,
    "visit_duration_hours": 1.0,
    "entrance_fee": "€5",
    "category": "Religious",
    "coordinates": {"lat": 37.1758, "lon": -3.5986},
    "description": "Renaissance cathedral with impressive façade and royal chapel",
    "is_top_attraction": true,
    "wikipedia": "en:Granada Cathedral",
    "source": "Curated"
  },
  {
    "name": "Capilla Real",
    "city": "Granada",
    "rating": 8.5,
    "visit_duration_hours": 1.0,
    "entrance_fee": "€5",
    "category": "Religious",
    "coordinates": {"lat": 37.1759, "lon": -3.5982},
    "description": "Royal Chapel housing tombs of Catholic Monarchs Ferdinand and Isabella",
    "is_top_attraction": true,
    "wikipedia": "en:Royal Chapel of Granada",
    "source": "Curated"
  },
  {
    "name": "Parque de María Luisa",
    "city": "Seville",
    "rating": 8.4,
    "visit_duration_hours": 1.5,
    "entrance_fee": "Free",
    "category": "Park",
    "coordinates": {"lat": 37.3753, "lon": -5.9872},
    "description": "Beautiful public park with gardens, fountains, and pavilions",
    "is_top_attraction": true,
    "wikipedia": "en:Parque de María Luisa",
    "source": "Curated"
  },
  {
    "name": "Casa de Pilatos",
    "city": "Seville",
    "rating": 8.3,
    "visit_duration_hours": 1.0,
    "entrance_fee": "€10",
    "category": "Palace",
    "coordinates": {"lat": 37.3928, "lon": -5.9870},
    "description": "Stunning palace blending Italian Renaissance and Spanish Mudéjar styles",
    "is_top_attraction": true,
    "wikipedia": "en:Casa de Pilatos",
    "source": "Curated"
  },
  {
    "name": "Mirador de San Nicolás",
    "city": "Granada",
    "rating": 8.6,
    "visit_duration_hours": 0.5,
    "entrance_fee": "Free",
    "category": "Viewpoint",
    "coordinates": {"lat": 37.1817, "lon": -3.5931},
    "description": "Famous viewpoint offering spectacular sunset views of the Alhambra",
    "is_top_attraction": true,
    "wikipedia": "en:Mirador de San Nicolás",
    "source": "Curated"
  },
  {
    "name": "Alcázar de los Reyes Cristianos",
    "city": "Córdoba",
    "rating": 8.2,
    "visit_duration_hours": 1.5,
    "entrance_fee": "€5",
    "category": "Castle",
    "coordinates": {"lat": 37.8767, "lon": -4.7822},
    "description": "Medieval fortress with beautiful gardens and Roman mosaics",
    "is_top_attraction": true,
    "wikipedia": "en:Alcázar de los Reyes Cristianos",
    "source": "Curated"
  },
  {
    "name": "Puente Romano",
    "city": "Córdoba",
    "rating": 8.3,
    "visit_duration_hours": 0.5,
    "entrance_fee": "Free",
    "category": "Historical",
    "coordinates": {"lat": 37.8769, "lon": -4.7783},
    "description": "Ancient Roman bridge crossing the Guadalquivir River",
    "is_top_attraction": true,
    "wikipedia": "en:Roman Bridge, Córdoba",
    "source": "Curated"
  },
  {
    "name": "Barrio de Santa Cruz",
    "city": "Seville",
    "rating": 8.5,
    "visit_duration_hours": 2.0,
    "entrance_fee": "Free",
    "category": "Neighborhood",
    "coordinates": {"lat": 37.3850, "lon": -5.9887},
    "description": "Charming former Jewish quarter with narrow streets and whitewashed houses",
    "is_top_attraction": true,
    "wikipedia": "en:Santa Cruz, Seville",
    "source": "Curated"
  },
  {
    "name": "Teatro Romano",
    "city": "Málaga",
    "rating": 8.1,
    "visit_duration_hours": 0.5,
    "entrance_fee": "Free",
    "category": "Archaeological",
    "coordinates": {"lat": 36.7208, "lon": -4.4156},
    "description": "Well-preserved 1st-century Roman theater at foot of Alcazaba",
    "is_top_attraction": true,
    "wikipedia": "en:Roman Theatre, Málaga",
    "source": "Curated"
  },
  {
    "name": "Castillo de Gibralfaro",
    "city": "Málaga",
    "rating": 8.2,
    "visit_duration_hours": 1.0,
    "entrance_fee": "€3.50",
    "category": "Castle",
    "coordinates": {"lat": 36.7236, "lon": -4.4114},
    "description": "Moorish castle with panoramic views of Málaga and the Mediterranean",
    "is_top_attraction": true,
    "wikipedia": "en:Gibralfaro",
    "source": "Curated"
  },
  {
    "name": "Monasterio de la Cartuja",
    "city": "Granada",
    "rating": 8.1,
    "visit_duration_hours": 1.0,
    "entrance_fee": "€5",
    "category": "Religious",
    "coordinates": {"lat": 37.1906, "lon": -3.6028},
    "description": "Lavish Baroque monastery with stunning interior decoration",
    "is_top_attraction": true,
    "wikipedia": "en:Cartuja de Granada",
    "source": "Curated"
  },
  {
    "name": "Museo de Bellas Artes de Sevilla",
    "city": "Seville",
    "rating": 8.2,
    "visit_duration_hours": 1.5,
    "entrance_fee": "Free for EU citizens",
    "category": "Museum",
    "coordinates": {"lat": 37.3914, "lon": -5.9973},
    "description": "Second most important art museum in Spain with Spanish Golden Age works",
    "is_top_attraction": true,
    "wikipedia": "en:Museum of Fine Arts of Seville",
    "source": "Curated"
  },
  {
    "name": "Basílica de la Macarena",
    "city": "Seville",
    "rating": 8.0,
    "visit_duration_hours": 0.5,
    "entrance_fee": "€5",
    "category": "Religious",
    "coordinates": {"lat": 37.3989, "lon": -5.9847},
    "description": "Baroque basilica housing the beloved Virgin of Hope statue",
    "is_top_attraction": true,
    "wikipedia": "en:Basílica de la Macarena",
    "source": "Curated"
  },
  {
    "name": "Plaza de Toros de la Maestranza",
    "city": "Seville",
    "rating": 8.1,
    "visit_duration_hours": 1.0,
    "entrance_fee": "€9",
    "category": "Historical",
    "coordinates": {"lat": 37.3861, "lon": -5.9989},
    "description": "One of Spain's most important bullrings with museum",
    "is_top_attraction": true,
    "wikipedia": "en:Plaza de toros de la Real Maestranza de Caballería de Sevilla",
    "source": "Curated"
  },
  {
    "name": "Archivo de Indias",
    "city": "Seville",
    "rating": 8.0,
    "visit_duration_hours": 1.0,
    "entrance_fee": "Free",
    "category": "Museum",
    "coordinates": {"lat": 37.3847, "lon": -5.9926},
    "description": "Repository of documents from Spanish colonial empire, UNESCO site",
    "is_top_attraction": true,
    "wikipedia": "en:Archivo General de Indias",
    "source": "Curated"
  },
  {
    "name": "Baños Árabes del Alcázar Califal",
    "city": "Córdoba",
    "rating": 8.0,
    "visit_duration_hours": 0.5,
    "entrance_fee": "Free",
    "category": "Historical",
    "coordinates": {"lat": 37.8792, "lon": -4.7804},
    "description": "Well-preserved 10th-century Arab baths with original architecture",
    "is_top_attraction": true,
    "wikipedia": "en:Arab Baths of Córdoba",
    "source": "Curated"
  },
  {
    "name": "Palacio de Viana",
    "city": "Córdoba",
    "rating": 8.2,
    "visit_duration_hours": 1.5,
    "entrance_fee": "€8",
    "category": "Palace",
    "coordinates": {"lat": 37.8889, "lon": -4.7742},
    "description": "Historic palace with 12 beautiful patios and extensive art collection",
    "is_top_attraction": true,
    "wikipedia": "en:Palacio de Viana",
    "source": "Curated"
  },
  {
    "name": "Sacromonte",
    "city": "Granada",
    "rating": 8.3,
    "visit_duration_hours": 2.0,
    "entrance_fee": "Free",
    "category": "Neighborhood",
    "coordinates": {"lat": 37.1836, "lon": -3.5875},
    "description": "Historic gypsy quarter famous for cave dwellings and flamenco shows",
    "is_top_attraction": true,
    "wikipedia": "en:Sacromonte",
    "source": "Curated"
  },
  {
    "name": "Abadía del Sacromonte",
    "city": "Granada",
    "rating": 8.0,
    "visit_duration_hours": 1.0,
    "entrance_fee": "€5",
    "category": "Religious",
    "coordinates": {"lat": 37.1861, "lon": -3.5831},
    "description": "17th-century abbey with catacombs and spectacular city views",
    "is_top_attraction": true,
    "wikipedia": "en:Sacromonte Abbey",
    "source": "Curated"
  },
  {
    "name": "Museo de la Alhambra",
    "city": "Granada",
    "rating": 8.1,
    "visit_duration_hours": 1.0,
    "entrance_fee": "Free",
    "category": "Museum",
    "coordinates": {"lat": 37.1768, "lon": -3.5895},
    "description": "Museum of Hispano-Muslim art housed in Alhambra complex",
    "is_top_attraction": true,
    "wikipedia": "en:Museum of the Alhambra",
    "source": "Curated"
  },
  {
    "name": "Palacio de la Aljafería",
    "city": "Zaragoza",
    "rating": 8.4,
    "visit_duration_hours": 1.5,
    "entrance_fee": "€5",
    "category": "Palace",
    "coordinates": {"lat": 41.6564, "lon": -0.8975},
    "description": "Fortified medieval Islamic palace, example of 11th-century Taifa architecture",
    "is_top_attraction": true,
    "wikipedia": "en:Aljafería",
    "source": "Curated"
  },
  {
    "name": "Centro Pompidou Málaga",
    "city": "Málaga",
    "rating": 8.0,
    "visit_duration_hours": 1.5,
    "entrance_fee": "€9",
    "category": "Museum",
    "coordinates": {"lat": 36.7188, "lon": -4.4211},
    "description": "Contemporary art museum, first Pompidou satellite outside France",
    "is_top_attraction": true,
    "wikipedia": "en:Centre Pompidou-Málaga",
    "source": "Curated"
  },
  {
    "name": "Catedral de Málaga",
    "city": "Málaga",
    "rating": 8.2,
    "visit_duration_hours": 1.0,
    "entrance_fee": "€6",
    "category": "Religious",
    "coordinates": {"lat": 36.7200, "lon": -4.4194},
    "description": "Renaissance cathedral known as 'La Manquita' for its unfinished south tower",
    "is_top_attraction": true,
    "wikipedia": "en:Málaga Cathedral",
    "source": "Curated"
  },
  {
    "name": "Mercado Central de Atarazanas",
    "city": "Málaga",
    "rating": 8.1,
    "visit_duration_hours": 1.0,
    "entrance_fee": "Free",
    "category": "Market",
    "coordinates": {"lat": 36.7194, "lon": -4.4233},
    "description": "Historic market in converted 14th-century shipyard with beautiful stained glass",
    "is_top_attraction": true,
    "wikipedia": "en:Atarazanas Market",
    "source": "Curated"
  },
  {
    "name": "Caminito del Rey",
    "city": "Málaga",
    "rating": 9.0,
    "visit_duration_hours": 3.0,
    "entrance_fee": "€10",
    "category": "Nature",
    "coordinates": {"lat": 36.9167, "lon": -4.7667},
    "description": "Thrilling walkway pinned along steep gorge walls, one of world's most dramatic hikes",
    "is_top_attraction": true,
    "wikipedia": "en:Caminito del Rey",
    "source": "Curated"
  },
  {
    "name": "Metropol Parasol",
    "city": "Seville",
    "rating": 7.9,
    "visit_duration_hours": 0.5,
    "entrance_fee": "€5",
    "category": "Architecture",
    "coordinates": {"lat": 37.3933, "lon": -5.9919},
    "description": "Modern wooden structure with rooftop walkway offering city views",
    "is_top_attraction": true,
    "wikipedia": "en:Metropol Parasol",
    "source": "Curated"
  },
  {
    "name": "Torre del Oro",
    "city": "Seville",
    "rating": 7.8,
    "visit_duration_hours": 0.5,
    "entrance_fee": "€3",
    "category": "Historical",
    "coordinates": {"lat": 37.3824, "lon": -5.9963},
    "description": "13th-century Almohad watchtower on Guadalquivir River, now naval museum",
    "is_top_attraction": true,
    "wikipedia": "en:Torre del Oro",
    "source": "Curated"
  },
  {
    "name": "Museo Arqueológico de Córdoba",
    "city": "Córdoba",
    "rating": 8.0,
    "visit_duration_hours": 1.5,
    "entrance_fee": "Free for EU citizens",
    "category": "Museum",
    "coordinates": {"lat": 37.8828, "lon": -4.7722},
    "description": "Archaeological museum with Roman, Visigothic, and Islamic artifacts",
    "is_top_attraction": true,
    "wikipedia": "en:Archaeological Museum of Córdoba",
    "source": "Curated"
  },
  {
    "name": "Sinagoga de Córdoba",
    "city": "Córdoba",
    "rating": 7.9,
    "visit_duration_hours": 0.5,
    "entrance_fee": "Free",
    "category": "Religious",
    "coordinates": {"lat": 37.8792, "lon": -4.7794},
    "description": "One of only three medieval synagogues remaining in Spain",
    "is_top_attraction": true,
    "wikipedia": "en:Synagogue of Córdoba",
    "source": "Curated"
  },
  {
    "name": "Parque Natural Sierras de Cazorla",
    "city": "Jaén",
    "rating": 8.7,
    "visit_duration_hours": 4.0,
    "entrance_fee": "Free",
    "category": "Nature",
    "coordinates": {"lat": 37.9167, "lon": -2.9167},
    "description": "Largest protected area in Spain with stunning mountains, forests, and wildlife",
    "is_top_attraction": true,
    "wikipedia": "en:Sierras de Cazorla, Segura y Las Villas Natural Park",
    "source": "Curated"
  },
  {
    "name": "Conjunto Monumental de la Alcazaba",
    "city": "Almería",
    "rating": 8.3,
    "visit_duration_hours": 1.5,
    "entrance_fee": "Free for EU citizens",
    "category": "Castle",
    "coordinates": {"lat": 36.8400, "lon": -2.4681},
    "description": "Massive Moorish fortress overlooking city, second largest in Spain",
    "is_top_attraction": true,
    "wikipedia": "en:Alcazaba of Almería",
    "source": "Curated"
  },
  {
    "name": "Parque Natural de Cabo de Gata",
    "city": "Almería",
    "rating": 8.8,
    "visit_duration_hours": 4.0,
    "entrance_fee": "Free",
    "category": "Nature",
    "coordinates": {"lat": 36.7833, "lon": -2.1167},
    "description": "Protected coastal area with volcanic landscapes and pristine beaches",
    "is_top_attraction": true,
    "wikipedia": "en:Cabo de Gata-Níjar Natural Park",
    "source": "Curated"
  },
  {
    "name": "Conjunto Arqueológico Dólmenes de Antequera",
    "city": "Antequera",
    "rating": 8.2,
    "visit_duration_hours": 1.5,
    "entrance_fee": "Free",
    "category": "Archaeological",
    "coordinates": {"lat": 37.0236, "lon": -4.5481},
    "description": "UNESCO site with three megalithic monuments from Neolithic period",
    "is_top_attraction": true,
    "wikipedia": "en:Antequera Dolmens Site",
    "source": "Curated"
  },
  {
    "name": "Casco Antiguo de Ronda",
    "city": "Ronda",
    "rating": 8.5,
    "visit_duration_hours": 2.0,
    "entrance_fee": "Free",
    "category": "Neighborhood",
    "coordinates": {"lat": 36.7425, "lon": -5.1642},
    "description": "Historic old town perched dramatically on cliff edge",
    "is_top_attraction": true,
    "wikipedia": "en:Ronda",
    "source": "Curated"
  },
  {
    "name": "Puente Nuevo",
    "city": "Ronda",
    "rating": 8.9,
    "visit_duration_hours": 0.5,
    "entrance_fee": "Free",
    "category": "Architecture",
    "coordinates": {"lat": 36.7408, "lon": -5.1653},
    "description": "Iconic 18th-century bridge spanning dramatic gorge, symbol of Ronda",
    "is_top_attraction": true,
    "wikipedia": "en:Puente Nuevo",
    "source": "Curated"
  },
  {
    "name": "Plaza de Toros de Ronda",
    "city": "Ronda",
    "rating": 8.3,
    "visit_duration_hours": 1.0,
    "entrance_fee": "€8",
    "category": "Historical",
    "coordinates": {"lat": 36.7383, "lon": -5.1661},
    "description": "Spain's oldest bullring, birthplace of modern bullfighting",
    "is_top_attraction": true,
    "wikipedia": "en:Plaza de toros de Ronda",
    "source": "Curated"
  },
  {
    "name": "Catedral de Cádiz",
    "city": "Cádiz",
    "rating": 8.1,
    "visit_duration_hours": 1.0,
    "entrance_fee": "€6",
    "category": "Religious",
    "coordinates": {"lat": 36.5289, "lon": -6.2931},
    "description": "Baroque and Neoclassical cathedral with iconic golden dome",
    "is_top_attraction": true,
    "wikipedia": "en:Cádiz Cathedral",
    "source": "Curated"
  },
  {
    "name": "Torre Tavira",
    "city": "Cádiz",
    "rating": 8.0,
    "visit_duration_hours": 0.5,
    "entrance_fee": "€7",
    "category": "Architecture",
    "coordinates": {"lat": 36.5333, "lon": -6.2972},
    "description": "Watchtower with camera obscura offering 360° views of city",
    "is_top_attraction": true,
    "wikipedia": "en:Torre Tavira",
    "source": "Curated"
  },
  {
    "name": "Catedral de Jaén",
    "city": "Jaén",
    "rating": 8.2,
    "visit_duration_hours": 1.0,
    "entrance_fee": "€5",
    "category": "Religious",
    "coordinates": {"lat": 37.7647, "lon": -3.7683},
    "description": "Renaissance cathedral considered masterpiece of Andrés de Vandelvira",
    "is_top_attraction": true,
    "wikipedia": "en:Jaén Cathedral",
    "source": "Curated"
  }
]