[
  {
    "id": "OSM_node_303618665",
    "name": "Hotel Ayre Sevilla",
    "city": "Sevilla",
    "category": "Hotel",
    "coordinates": {
      "lat": 37.3891832,
      "lon": -5.9746824
    },
    "star_rating": null,
    "avg_price_per_night_couple": null,
    "guest_rating": 8.4,
    "website": null,
    "phone": null,
    "email": null,
    "opening_hours": null,
    "amenities": [],
    "source": "OpenStreetMap",
    "osm_id": 303618665,
    "osm_type": "node",
    "city_original": "Sevilla",
    "address": "Hotel Ayre Sevilla, Calle Cefiro, La Calzada, Nervión, Sevilla, Andalucía, 41018, España",
    "lat": 37.3891832,
    "lon": -5.9746824
  },
  {
    "id": "OSM_node_366549833",
    "name": "Hotel Baco",
    "city": "Sevilla",
    "category": "Hotel",
    "coordinates": {
      "lat": 37.3930076,
      "lon": -5.9874042
    },
    "star_rating": null,
    "avg_price_per_night_couple": null,
    "guest_rating": 7.7,
    "website": null,
    "phone": null,
    "email": null,
    "opening_hours": null,
    "amenities": [],
    "source": "OpenStreetMap",
    "osm_id": 366549833,
    "osm_type": "node",
    "city_original": "Sevilla",
    "address": "Hotel Baco, Plaza Ponce de León, Santa Catalina, Casco Antiguo, Sevilla, Andalucía, 41003, España",
    "lat": 37.3930076,
    "lon": -5.9874042
  },
  {
    "id": "OSM_node_366550740",
    "name": "Hotel Don Paco",
    "city": "Sevilla",
    "category": "Hotel",
    "coordinates": {
      "lat": 37.3927272,
      "lon": -5.9868804
    },
    "star_rating": null,
    "avg_price_per_night_couple": null,
    "guest_rating": 7.9,
    "website": null,
    "phone": null,
    "email": null,
    "opening_hours": null,
    "amenities": [
      "Wheelchair accessible"
    ],
    "source": "OpenStreetMap",
    "osm_id": 366550740,
    "osm_type": "node",
    "city_original": "Sevilla",
    "address": "Hotel Don Paco, Plaza Padre Jerónimo de Córdoba, Santa Catalina, Casco Antiguo, Sevilla, Andalucía, 41003, España",
    "lat": 37.3927272,
    "lon": -5.9868804
  },
  {
    "id": "OSM_node_366633327",
    "name": "Hotel Catalonia Giralda",
    "city": "Sevilla",
    "category": "Hotel",
    "coordinates": {
      "lat": 37.3901535,
      "lon": -5.9848282
    },
    "star_rating": 4,
    "avg_price_per_night_couple": null,
    "guest_rating": 8.8,
    "website": "https://www.cataloniahotels.com/es/hotel/catalonia-giralda",
    "phone": "+34 954 41 66 61",
    "email": null,
    "opening_hours": null,
    "amenities": [
      "WiFi"
    ],
    "source": "OpenStreetMap",
    "osm_id": 366633327,
    "osm_type": "node",
    "city_original": "Sevilla",
    "address": "Hotel Catalonia Giralda, 3, Calle Sierra Nevada, San Bartolomé, Casco Antiguo, Sevilla, Andalucía, 41003, España",
    "lat": 37.3901535,
    "lon": -5.9848282
  },
  {
    "id": "OSM_node_366839953",
    "name": "Hostal Alcobia",
    "city": "Sevilla",
    "category": "Hotel",
    "coordinates": {
      "lat": 37.3886756,
      "lon": -5.9856098
    },
    "star_rating": null,
    "avg_price_per_night_couple": null,
    "guest_rating": 8.1,
    "website": null,
    "phone": null,
    "email": null,
    "opening_hours": null,
    "amenities": [],
    "source": "OpenStreetMap",
    "osm_id": 366839953,
    "osm_type": "node",
    "city_original": "Sevilla",
    "address": "Hostal Alcobia, Calle Tintes, San Bartolomé, Casco Antiguo, Sevilla, Andalucía, 41004, España",
    "lat": 37.3886756,
    "lon": -5.9856098
  },
  {
    "id": "OSM_node_367156845",
    "name": "Taberna del Alabardero",
    "city": "Sevilla",
    "category": "Hotel",
    "coordinates": {
      "lat": 37.3886071,
      "lon": -5.9981695
    },
    "star_rating": null,
    "avg_price_per_night_couple": null,
    "guest_rating": 8.2,
    "website": null,
    "phone": null,
    "email": null,
    "opening_hours": null,
    "amenities": [],
    "source": "OpenStreetMap",
    "osm_id": 367156845,
    "osm_type": "node",
    "city_original": "Sevilla",
    "address": "Taberna del Alabardero, Calle Zaragoza, El Arenal, Casco Antiguo, Sevilla, Andalucía, 41001, España",
    "lat": 37.3886071,
    "lon": -5.9981695
  },
  {
    "id": "OSM_node_491223626",
    "name": "Hotel Cervantes",
    "city": "Sevilla",
    "category": "Hotel",
    "coordinates": {
      "lat": 37.3953853,
      "lon": -5.9933811
    },
    "star_rating": null,
    "avg_price_per_night_couple": null,
    "guest_rating": 8.4,
    "website": null,
    "phone": null,
    "email": null,
    "opening_hours": null,
    "amenities": [],
    "source": "OpenStreetMap",
    "osm_id": 491223626,
    "osm_type": "node",
    "city_original": "Sevilla",
    "address": "Hotel Cervantes, Calle Cervantes, Encarnación-Regina, Casco Antiguo, Sevilla, Andalucía, 41002, España",
    "lat": 37.3954739,
    "lon": -5.9932952
  },
  {
    "id": "OSM_node_504314079",
    "name": "Hotel Casa Carmona",
    "city": "Carmona",
    "category": "Hotel",
    "coordinates": {
      "lat": 37.4747164,
      "lon": -5.6384635
    },
    "star_rating": null,
    "avg_price_per_night_couple": null,
    "guest_rating": 7.9,
    "website": null,
    "phone": null,
    "email": null,
    "opening_hours": null,
    "amenities": [],
    "source": "OpenStreetMap",
    "osm_id": 504314079,
    "osm_type": "node",
    "city_original": "Sevilla",
    "address": "Hotel Casa Carmona, Carmona, Seville Province, Andalusia, Spain",
    "lat": 37.4747164,
    "lon": -5.6384635
  },
  {
    "id": "OSM_node_504314080",
    "name": "Hotel Alcázar de la Reina",
    "city": "Carmona",
    "category": "Hotel",
    "coordinates": {
      "lat": 37.4745597,
      "lon": -5.637794
    },
    "star_rating": null,
    "avg_price_per_night_couple": null,
    "guest_rating": 8.0,
    "website": null,
    "phone": null,
    "email": null,
    "opening_hours": null,
    "amenities": [],
    "source": "OpenStreetMap",
    "osm_id": 504314080,
    "osm_type": "node",
    "city_original": "Sevilla",
    "address": "Hotel Alcázar de la Reina, Carmona, Seville Province, Andalusia, Spain",
    "lat": 37.4745597,
    "lon": -5.637794
  },
  {
    "id": "OSM_node_538093872",
    "name": "Gran Hotel Lar",
    "city": "Sevilla",
    "category": "Hotel",
    "coordinates": {
      "lat": 37.390558,
      "lon": -5.9834847
    },
    "star_rating": 4,
    "avg_price_per_night_couple": null,
    "guest_rating": 8.7,
    "website": "https://www.larhotel.com/",
    "phone": "+34 954 41 0361",
    "email": "info@larhotel.com",
    "opening_hours": null,
    "amenities": [],
    "source": "OpenStreetMap",
    "osm_id": 538093872,
    "osm_type": "node",
    "city_original": "Sevilla",
    "address": "Gran Hotel Lar, 3, Calle Juan de Vera, San Roque, Nervión, Sevilla, Andalucía, 41003, España",
    "lat": 37.390558,
    "lon": -5.9834847
  },
  {
    "id": "OSM_node_631339527",
    "name": "Hotel Catalonia Santa Justa",
    "city": "Sevilla",
    "category": "Hotel",
    "coordinates": {
      "lat": 37.3935863,
      "lon": -5.982692
    },
    "star_rating": null,
    "avg_price_per_night_couple": null,
    "guest_rating": 8.0,
    "website": null,
    "phone": null,
    "email": null,
    "opening_hours": null,
    "amenities": [],
    "source": "OpenStreetMap",
    "osm_id": 631339527,
    "osm_type": "node",
    "city_original": "Sevilla",
    "address": "Hotel Catalonia Santa Justa, Calle José Laguillo, La Rosaleda, El Fontanal-María Auxiliadora-Carretera de Carmona, Distrito San Pablo-Santa Justa, Sevilla, Andalucía, 41003, España",
    "lat": 37.3935863,
    "lon": -5.982692
  },
  {
    "id": "OSM_node_643085776",
    "name": "Hotel Londrès",
    "city": "Sevilla",
    "category": "Hotel",
    "coordinates": {
      "lat": 37.3912955,
      "lon": -5.9995814
    },
    "star_rating": 2,
    "avg_price_per_night_couple": null,
    "guest_rating": 7.6,
    "website": null,
    "phone": null,
    "email": null,
    "opening_hours": null,
    "amenities": [],
    "source": "OpenStreetMap",
    "osm_id": 643085776,
    "osm_type": "node",
    "city_original": "Sevilla",
    "address": "Hotel Londrès, 1, Calle San Pedro Mártir, Museo, Casco Antiguo, Sevilla, Andalucía, 41001, España",
    "lat": 37.3912955,
    "lon": -5.9995814
  },
  {
    "id": "OSM_node_683117982",
    "name": "Hotel Monte Olivete",
    "city": "Sevilla",
    "category": "Hotel",
    "coordinates": {
      "lat": 37.3916098,
      "lon": -5.97047
    },
    "star_rating": null,
    "avg_price_per_night_couple": null,
    "guest_rating": 7.7,
    "website": null,
    "phone": null,
    "email": null,
    "opening_hours": null,
    "amenities": [],
    "source": "OpenStreetMap",
    "osm_id": 683117982,
    "osm_type": "node",
    "city_original": "Sevilla",
    "address": "Hotel Monte Olivete, Calle Monte Olivete, Huerta de Santa Teresa, Distrito San Pablo-Santa Justa, Sevilla, Andalucía, 41007, España",
    "lat": 37.3916098,
    "lon": -5.97047
  },
  {
    "id": "OSM_node_747133139",
    "name": "Hotel Abril",
    "city": "Sevilla",
    "category": "Hotel",
    "coordinates": {
      "lat": 37.3944452,
      "lon": -5.99105
    },
    "star_rating": null,
    "avg_price_per_night_couple": null,
    "guest_rating": 7.9,
    "website": null,
    "phone": null,
    "email": null,
    "opening_hours": null,
    "amenities": [],
    "source": "OpenStreetMap",
    "osm_id": 747133139,
    "osm_type": "node",
    "city_original": "Sevilla",
    "address": "Hotel Abril, Calle Jerónimo Hernández, Encarnación-Regina, Casco Antiguo, Sevilla, Andalucía, 41003, España",
    "lat": 37.3944452,
    "lon": -5.99105
  },
  {
    "id": "OSM_node_747195745",
    "name": "Hotel Don Pedro",
    "city": "Sevilla",
    "category": "Hotel",
    "coordinates": {
      "lat": 37.3938507,
      "lon": -5.9888876
    },
    "star_rating": null,
    "avg_price_per_night_couple": null,
    "guest_rating": 8.2,
    "website": null,
    "phone": null,
    "email": null,
    "opening_hours": null,
    "amenities": [],
    "source": "OpenStreetMap",
    "osm_id": 747195745,
    "osm_type": "node",
    "city_original": "Sevilla",
    "address": "Hotel Don Pedro, Calle Gerona, Encarnación-Regina, Casco Antiguo, Sevilla, Andalucía, 41003, España",
    "lat": 37.3938507,
    "lon": -5.9888876
  },
  {
    "id": "OSM_node_33515433",
    "name": "Finca los Llanos",
    "city": "Capileira",
    "category": "Hotel",
    "coordinates": {
      "lat": 36.9621414,
      "lon": -3.3574495
    },
    "star_rating": 3,
    "avg_price_per_night_couple": null,
    "guest_rating": 8.3,
    "website": "https://www.hotelfincalosllanos.com/",
    "phone": "+34 958 763071",
    "email": null,
    "opening_hours": null,
    "amenities": [],
    "source": "OpenStreetMap",
    "osm_id": 33515433,
    "osm_type": "node",
    "city_original": "Granada",
    "address": "Finca los Llanos, Capileira, Granada Province, Andalusia, Spain",
    "lat": 36.9620499,
    "lon": -3.3574108
  },
  {
    "id": "OSM_node_314442493",
    "name": "Suites Albayzin del Mar",
    "city": "Almuñécar",
    "category": "Hotel",
    "coordinates": {
      "lat": 36.7373258,
      "lon": -3.6952186
    },
    "star_rating": null,
    "avg_price_per_night_couple": null,
    "guest_rating": 7.9,
    "website": null,
    "phone": null,
    "email": null,
    "opening_hours": null,
    "amenities": [],
    "source": "OpenStreetMap",
    "osm_id": 314442493,
    "osm_type": "node",
    "city_original": "Granada",
    "address": "Suites Albayzin del Mar, Almuñécar, Granada Province, Andalusia, Spain",
    "lat": 36.7373258,
    "lon": -3.6952186
  },
  {
    "id": "OSM_node_401436962",
    "name": "Hotel Impressive Playa Granada Golf",
    "city": "Motril",
    "category": "Hotel",
    "coordinates": {
      "lat": 36.7208572,
      "lon": -3.5638548
    },
    "star_rating": null,
    "avg_price_per_night_couple": null,
    "guest_rating": 8.3,
    "website": "https://www.impressiveresortsplayagranada.com",
    "phone": "+34 958 60 62 82",
    "email": "reservas.pg@impressiveresorts.com",
    "opening_hours": null,
    "amenities": [
      "Air conditioning"
    ],
    "source": "OpenStreetMap",
    "osm_id": 401436962,
    "osm_type": "node",
    "city_original": "Granada",
    "address": "Hotel Impressive Playa Granada Golf, Motril, Granada Province, Andalusia, Spain",
    "lat": 36.7208572,
    "lon": -3.5638548
  },
  {
    "id": "OSM_node_430878979",
    "name": "Almuñécar Playa",
    "city": "Almuñécar",
    "category": "Hotel",
    "coordinates": {
      "lat": 36.7312469,
      "lon": -3.6972829
    },
    "star_rating": 4,
    "avg_price_per_night_couple": null,
    "guest_rating": 9.1,
    "website": null,
    "phone": null,
    "email": null,
    "opening_hours": null,
    "amenities": [
      "Wheelchair accessible"
    ],
    "source": "OpenStreetMap",
    "osm_id": 430878979,
    "osm_type": "node",
    "city_original": "Granada",
    "address": "Almuñécar Playa, Almuñécar, Granada Province, Andalusia, Spain",
    "lat": 36.7312469,
    "lon": -3.6972829
  },
  {
    "id": "OSM_node_524072424",
    "name": "El Nogal",
    "city": "Almegíjar",
    "category": "Hotel",
    "coordinates": {
      "lat": 37.2275725,
      "lon": -3.6291836
    },
    "star_rating": null,
    "avg_price_per_night_couple": null,
    "guest_rating": 7.7,
    "website": null,
    "phone": null,
    "email": null,
    "opening_hours": null,
    "amenities": [],
    "source": "OpenStreetMap",
    "osm_id": 524072424,
    "osm_type": "node",
    "city_original": "Granada",
    "address": "El Nogal, Almegíjar, Granada Province, Andalusia, Spain",
    "lat": 36.9237128,
    "lon": -3.2757411
  },
  {
    "id": "OSM_node_538064607",
    "name": "Eurostars Puerta Real",
    "city": "Granada",
    "category": "Hotel",
    "coordinates": {
      "lat": 37.1722273,
      "lon": -3.5994778
    },
    "star_rating": 4,
    "avg_price_per_night_couple": null,
    "guest_rating": 9.2,
    "website": "https://www.eurostarshotels.com/eurostars-puerta-real.html",
    "phone": "(+34) 958 52 11 11",
    "email": "reservas@eurostarspuertareal.com",
    "opening_hours": null,
    "amenities": [
      "WiFi",
      "Air conditioning"
    ],
    "source": "OpenStreetMap",
    "osm_id": 538064607,
    "osm_type": "node",
    "city_original": "Granada",
    "address": "Eurostars Puerta Real, 24, Calle Acera del Darro, Barrio de San Antón, Fígares, Ronda, Granada, Comarca de la Vega de Granada, Granada, Andalucía, 18005, España",
    "lat": 37.1722273,
    "lon": -3.5994778
  },
  {
    "id": "OSM_node_558841749",
    "name": "Los Macabes",
    "city": "Mecina Bombarón",
    "category": "Hotel",
    "coordinates": {
      "lat": 36.9803643,
      "lon": -3.1548196
    },
    "star_rating": null,
    "avg_price_per_night_couple": null,
    "guest_rating": 8.3,
    "website": "https://alojamientoslosmacabes.com/",
    "phone": "+34 696472678",
    "email": "losmacabes@hotmail.com",
    "opening_hours": null,
    "amenities": [],
    "source": "OpenStreetMap",
    "osm_id": 558841749,
    "osm_type": "node",
    "city_original": "Granada",
    "address": "Los Macabes, Mecina Bombarón, Granada Province, Andalusia, Spain",
    "lat": 36.9803643,
    "lon": -3.1548196
  },
  {
    "id": "OSM_node_559918865",
    "name": "Rodri",
    "city": "Granada",
    "category": "Hotel",
    "coordinates": {
      "lat": 37.1766615,
      "lon": -3.6023336
    },
    "star_rating": 2,
    "avg_price_per_night_couple": null,
    "guest_rating": 7.5,
    "website": "https://www.hostalrodri.com/",
    "phone": "+34 958 288 043",
    "email": "info@hostalrodri.com",
    "opening_hours": null,
    "amenities": [],
    "source": "OpenStreetMap",
    "osm_id": 559918865,
    "osm_type": "node",
    "city_original": "Granada",
    "address": "Rodri, 9, Calle Laurel de las Tablas, Barrio de la Duquesa, Centro - Sagrario, Centro, Granada, Comarca de la Vega de Granada, Granada, Andalucía, 18002, España",
    "lat": 37.1766615,
    "lon": -3.6023336
  },
  {
    "id": "OSM_node_559944408",
    "name": "Hostal Rural Atalaya",
    "city": "Capileira",
    "category": "Hotel",
    "coordinates": {
      "lat": 36.960443,
      "lon": -3.3583399
    },
    "star_rating": null,
    "avg_price_per_night_couple": null,
    "guest_rating": 7.7,
    "website": "https://hostalatalaya.com",
    "phone": "+34 958 76 30 25",
    "email": "hostalatalaya@gmail.com",
    "opening_hours": null,
    "amenities": [],
    "source": "OpenStreetMap",
    "osm_id": 559944408,
    "osm_type": "node",
    "city_original": "Granada",
    "address": "Hostal Rural Atalaya, Capileira, Granada Province, Andalusia, Spain",
    "lat": 36.960443,
    "lon": -3.3583399
  },
  {
    "id": "OSM_node_559944409",
    "name": "Mesón Poqueira II",
    "city": "Capileira",
    "category": "Hotel",
    "coordinates": {
      "lat": 36.9612851,
      "lon": -3.3588041
    },
    "star_rating": null,
    "avg_price_per_night_couple": null,
    "guest_rating": 8.5,
    "website": null,
    "phone": null,
    "email": null,
    "opening_hours": null,
    "amenities": [],
    "source": "OpenStreetMap",
    "osm_id": 559944409,
    "osm_type": "node",
    "city_original": "Granada",
    "address": "Mesón Poqueira II, Capileira, Granada Province, Andalusia, Spain",
    "lat": 36.9612851,
    "lon": -3.3588041
  },
  {
    "id": "OSM_node_775733527",
    "name": "Castillo Lanjarón",
    "city": "Lanjarón",
    "category": "Hotel",
    "coordinates": {
      "lat": 36.9175913,
      "lon": -3.4880321
    },
    "star_rating": 3,
    "avg_price_per_night_couple": null,
    "guest_rating": 7.9,
    "website": "https://hcastillolanjaron.com/",
    "phone": "+34 958 77 07 12",
    "email": "reservas@hcastillolanjaron.com",
    "opening_hours": null,
    "amenities": [
      "WiFi"
    ],
    "source": "OpenStreetMap",
    "osm_id": 775733527,
    "osm_type": "node",
    "city_original": "Granada",
    "address": "Castillo Lanjarón, Lanjarón, Granada Province, Andalusia, Spain",
    "lat": 36.9175913,
    "lon": -3.4880321
  },
  {
    "id": "OSM_node_929544118",
    "name": "Hotel Las Yucas",
    "city": "Atarfe",
    "category": "Hotel",
    "coordinates": {
      "lat": 37.2159467,
      "lon": -3.6905195
    },
    "star_rating": 2,
    "avg_price_per_night_couple": null,
    "guest_rating": 7.3,
    "website": "https://www.lasyucas.com",
    "phone": "+34 958 43 88 78",
    "email": "lasyucas@lasyucas.com",
    "opening_hours": null,
    "amenities": [
      "WiFi"
    ],
    "source": "OpenStreetMap",
    "osm_id": 929544118,
    "osm_type": "node",
    "city_original": "Granada",
    "address": "Hotel Las Yucas, Atarfe, Granada Province, Andalusia, Spain",
    "lat": 37.2159467,
    "lon": -3.6905195
  },
  {
    "id": "OSM_node_937036809",
    "name": "Futurotel Granada Dreams",
    "city": "Granada",
    "category": "Hotel",
    "coordinates": {
      "lat": 37.1773695,
      "lon": -3.6048436
    },
    "star_rating": 2,
    "avg_price_per_night_couple": null,
    "guest_rating": 8.0,
    "website": null,
    "phone": null,
    "email": null,
    "opening_hours": null,
    "amenities": [],
    "source": "OpenStreetMap",
    "osm_id": 937036809,
    "osm_type": "node",
    "city_original": "Granada",
    "address": "Futurotel Granada Dreams, Calle Almona Vieja, Barrio de la Duquesa, Centro - Sagrario, Centro, Granada, Comarca de la Vega de Granada, Granada, Andalucía, 18002, España",
    "lat": 37.1773695,
    "lon": -3.6048436
  },
  {
    "id": "OSM_node_634360681",
    "name": "Palacio del Bailío",
    "city": "Córdoba",
    "category": "Hotel",
    "coordinates": {
      "lat": 37.8875476,
      "lon": -4.7775399
    },
    "star_rating": null,
    "avg_price_per_night_couple": null,
    "guest_rating": 8.3,
    "website": null,
    "phone": null,
    "email": null,
    "opening_hours": null,
    "amenities": [],
    "source": "OpenStreetMap",
    "osm_id": 634360681,
    "osm_type": "node",
    "city_original": "Córdoba",
    "address": "Palacio del Bailío, Calle de Ramírez Casas Deza, San Miguel - Capuchinos, Santiago, Córdoba, Andalucía, 14001, España",
    "lat": 37.8875476,
    "lon": -4.7775399
  },
  {
    "id": "OSM_node_791746737",
    "name": "Viena",
    "city": "Córdoba",
    "category": "Hotel",
    "coordinates": {
      "lat": -31.423692,
      "lon": -64.191107
    },
    "star_rating": null,
    "avg_price_per_night_couple": null,
    "guest_rating": 8.0,
    "website": null,
    "phone": null,
    "email": null,
    "opening_hours": null,
    "amenities": [],
    "source": "OpenStreetMap",
    "osm_id": 791746737,
    "osm_type": "node",
    "city_original": "Córdoba",
    "address": "Viena, 8, Calle Ángel de Saavedra, San Salvador y La Compañía, Santiago, Córdoba, Andalucía, 14003, España",
    "lat": 37.8822715,
    "lon": -4.7799265
  },
  {
    "id": "OSM_node_907414568",
    "name": "Carpe Diem",
    "city": "Córdoba",
    "category": "Hotel",
    "coordinates": {
      "lat": 37.882153,
      "lon": -4.7802628
    },
    "star_rating": 3,
    "avg_price_per_night_couple": null,
    "guest_rating": 8.5,
    "website": null,
    "phone": null,
    "email": null,
    "opening_hours": null,
    "amenities": [],
    "source": "OpenStreetMap",
    "osm_id": 907414568,
    "osm_type": "node",
    "city_original": "Córdoba",
    "address": "Carpe Diem, 4, Calle Barroso, San Pedro, El Salvador y La Compañía, Santiago, Córdoba, Andalucía, 14003, España",
    "lat": 37.882153,
    "lon": -4.7802628
  },
  {
    "id": "OSM_node_993723466",
    "name": "La Boutique Puerta Osari",
    "city": "Córdoba",
    "category": "Hotel",
    "coordinates": {
      "lat": 37.8884661,
      "lon": -4.7794425
    },
    "star_rating": 3,
    "avg_price_per_night_couple": null,
    "guest_rating": 8.5,
    "website": null,
    "phone": null,
    "email": null,
    "opening_hours": null,
    "amenities": [],
    "source": "OpenStreetMap",
    "osm_id": 993723466,
    "osm_type": "node",
    "city_original": "Córdoba",
    "address": "La Boutique Puerta Osari, Calle Osario, San Miguel - Capuchinos, Santiago, Córdoba, Andalucía, 14001, España",
    "lat": 37.8884661,
    "lon": -4.7794425
  },
  {
    "id": "OSM_node_1115512841",
    "name": "NH Califa",
    "city": "Córdoba",
    "category": "Hotel",
    "coordinates": {
      "lat": 37.8828422,
      "lon": -4.7841108
    },
    "star_rating": 3,
    "avg_price_per_night_couple": null,
    "guest_rating": 8.5,
    "website": null,
    "phone": null,
    "email": null,
    "opening_hours": null,
    "amenities": [],
    "source": "OpenStreetMap",
    "osm_id": 1115512841,
    "osm_type": "node",
    "city_original": "Córdoba",
    "address": "NH Califa, Calle Lope de Hoces, Vista Alegre, La Trinidad, Santiago, Córdoba, Andalucía, 14008, España",
    "lat": 37.8828422,
    "lon": -4.7841108
  },
  {
    "id": "OSM_node_1115551657",
    "name": "NH Amistad",
    "city": "Córdoba",
    "category": "Hotel",
    "coordinates": {
      "lat": 37.8791968,
      "lon": -4.782806
    },
    "star_rating": 4,
    "avg_price_per_night_couple": null,
    "guest_rating": 8.8,
    "website": null,
    "phone": null,
    "email": null,
    "opening_hours": null,
    "amenities": [],
    "source": "OpenStreetMap",
    "osm_id": 1115551657,
    "osm_type": "node",
    "city_original": "Córdoba",
    "address": "NH Amistad, Plaza Maimónides, Vista Alegre, Huerta del Rey - Vallellano, Santiago, Córdoba, Andalucía, 14004, España",
    "lat": 37.8791968,
    "lon": -4.782806
  },
  {
    "id": "OSM_node_1161266150",
    "name": "Crisol Jardines de Córdoba",
    "city": "Córdoba",
    "category": "Hotel",
    "coordinates": {
      "lat": 37.9151416,
      "lon": -4.8033466
    },
    "star_rating": null,
    "avg_price_per_night_couple": null,
    "guest_rating": 8.2,
    "website": "https://www.eurostarshotels.com/crisol-jardines-de-cordoba.html",
    "phone": "+34 957 76 74 76",
    "email": "reservas@crisoljardinesdecordoba.com",
    "opening_hours": null,
    "amenities": [],
    "source": "OpenStreetMap",
    "osm_id": 1161266150,
    "osm_type": "node",
    "city_original": "Córdoba",
    "address": "Crisol Jardines de Córdoba, 3, Calle Poeta Alonso Bonilla, El Patriarca, Distrito Norte Sierra, Córdoba, Andalucía, 14012, España",
    "lat": 37.9151416,
    "lon": -4.8033466
  },
  {
    "id": "OSM_node_280764174",
    "name": "Hotel Reina Victoria",
    "city": "Ronda",
    "category": "Hotel",
    "coordinates": {
      "lat": 36.7467797,
      "lon": -5.1697488
    },
    "star_rating": 4,
    "avg_price_per_night_couple": null,
    "guest_rating": 8.6,
    "website": "https://www.cataloniahotels.com/es/hotel/catalonia-reina-victoria",
    "phone": "+34 952 871 240",
    "email": null,
    "opening_hours": null,
    "amenities": [
      "WiFi"
    ],
    "source": "OpenStreetMap",
    "osm_id": 280764174,
    "osm_type": "node",
    "city_original": "Málaga",
    "address": "Hotel Reina Victoria, Calle Jerez, Ronda, Serranía de Ronda, Málaga, Andalucía, 29400, España",
    "lat": 36.7467797,
    "lon": -5.1697488
  },
  {
    "id": "OSM_node_304571688",
    "name": "MB boutique",
    "city": "Nerja",
    "category": "Hotel",
    "coordinates": {
      "lat": 36.7441474,
      "lon": -3.8834063
    },
    "star_rating": 3,
    "avg_price_per_night_couple": null,
    "guest_rating": 8.0,
    "website": null,
    "phone": null,
    "email": null,
    "opening_hours": null,
    "amenities": [],
    "source": "OpenStreetMap",
    "osm_id": 304571688,
    "osm_type": "node",
    "city_original": "Málaga",
    "address": "MB boutique, Plaza Chaparil, Nerja, La Axarquía, Málaga, Andalucía, 29780, España",
    "lat": 36.7441474,
    "lon": -3.8834063
  },
  {
    "id": "OSM_node_304572089",
    "name": "Casa Maro",
    "city": "Nerja",
    "category": "Hotel",
    "coordinates": {
      "lat": 36.7570603,
      "lon": -3.8434898
    },
    "star_rating": null,
    "avg_price_per_night_couple": null,
    "guest_rating": 8.0,
    "website": "https://hotelcasamaro.com",
    "phone": "+34 627 95 84 56",
    "email": null,
    "opening_hours": null,
    "amenities": [],
    "source": "OpenStreetMap",
    "osm_id": 304572089,
    "osm_type": "node",
    "city_original": "Málaga",
    "address": "Casa Maro, Calle Virgen de las Maravillas, Urbanización Puente Águila, Maro, Nerja, La Axarquía, Málaga, Andalucía, 29787, España",
    "lat": 36.7570603,
    "lon": -3.8434898
  },
  {
    "id": "OSM_node_304572186",
    "name": "Playamaro",
    "city": "Nerja",
    "category": "Hotel",
    "coordinates": {
      "lat": 36.7592686,
      "lon": -3.8421732
    },
    "star_rating": 3,
    "avg_price_per_night_couple": null,
    "guest_rating": 8.3,
    "website": "https://www.hotelplayamaro.com",
    "phone": "+34 952 529 582",
    "email": null,
    "opening_hours": null,
    "amenities": [
      "WiFi",
      "Air conditioning"
    ],
    "source": "OpenStreetMap",
    "osm_id": 304572186,
    "osm_type": "node",
    "city_original": "Málaga",
    "address": "Playamaro, Calle San Miguel, Urbanización Puente Águila, Maro, Nerja, La Axarquía, Málaga, Andalucía, 29787, España",
    "lat": 36.7591761,
    "lon": -3.8423478
  },
  {
    "id": "OSM_node_304572485",
    "name": "Bajamar",
    "city": "Nerja",
    "category": "Hotel",
    "coordinates": {
      "lat": 36.7473771,
      "lon": -3.8794934
    },
    "star_rating": 2,
    "avg_price_per_night_couple": null,
    "guest_rating": 7.5,
    "website": "https://www.hotelbajamar.com/",
    "phone": null,
    "email": null,
    "opening_hours": null,
    "amenities": [
      "WiFi"
    ],
    "source": "OpenStreetMap",
    "osm_id": 304572485,
    "osm_type": "node",
    "city_original": "Málaga",
    "address": "Bajamar, Calle Chaparil, Nerja, La Axarquía, Málaga, Andalucía, 29780, España",
    "lat": 36.7473771,
    "lon": -3.8794934
  },
  {
    "id": "OSM_node_307844997",
    "name": "Puerta del Mar",
    "city": "Marbella",
    "category": "Hotel",
    "coordinates": {
      "lat": 36.7453275,
      "lon": -3.8770038
    },
    "star_rating": null,
    "avg_price_per_night_couple": null,
    "guest_rating": 8.0,
    "website": null,
    "phone": null,
    "email": null,
    "opening_hours": null,
    "amenities": [],
    "source": "OpenStreetMap",
    "osm_id": 307844997,
    "osm_type": "node",
    "city_original": "Málaga",
    "address": "Puerta del Mar, Urbanización Sitio de Calahonda, Mijas, Costa del Sol Occidental, Málaga, Andalucía, 29650, España",
    "lat": 36.4869307,
    "lon": -4.7226073
  },
  {
    "id": "OSM_node_307951292",
    "name": "Villa Frigiliana",
    "city": "Nerja",
    "category": "Hotel",
    "coordinates": {
      "lat": 36.7903726,
      "lon": -3.8952003
    },
    "star_rating": null,
    "avg_price_per_night_couple": null,
    "guest_rating": 8.0,
    "website": "https://hotelvillafrigiliana.com/",
    "phone": "+34 952 534 008",
    "email": "info@villafrigilianahotel.com",
    "opening_hours": null,
    "amenities": [],
    "source": "OpenStreetMap",
    "osm_id": 307951292,
    "osm_type": "node",
    "city_original": "Málaga",
    "address": "Villa Frigiliana, 1, Calle San Sebastián, Frigiliana, La Axarquía, Málaga, Andalucía, 29788, España",
    "lat": 36.7903726,
    "lon": -3.8952003
  },
  {
    "id": "OSM_node_319499150",
    "name": "Doña Luisa",
    "city": "Manilva",
    "category": "Hotel",
    "coordinates": {
      "lat": 36.3660021,
      "lon": -5.2258742
    },
    "star_rating": 3,
    "avg_price_per_night_couple": null,
    "guest_rating": 8.0,
    "website": "https://www.hoteldluisa.com/",
    "phone": "+34 952892250",
    "email": "reservas@hoteldluisa.com",
    "opening_hours": null,
    "amenities": [
      "WiFi"
    ],
    "source": "OpenStreetMap",
    "osm_id": 319499150,
    "osm_type": "node",
    "city_original": "Málaga",
    "address": "Doña Luisa, Calle de la Duquesa de Arcos, San Luis de Sabinillas, Manilva, Costa del Sol Occidental, Málaga, Andalucía, 29292, España",
    "lat": 36.3660021,
    "lon": -5.2258742
  },
  {
    "id": "OSM_node_319499170",
    "name": "Don Agustín",
    "city": "Manilva",
    "category": "Hotel",
    "coordinates": {
      "lat": 36.3656571,
      "lon": -5.2260344
    },
    "star_rating": null,
    "avg_price_per_night_couple": null,
    "guest_rating": 8.4,
    "website": "https://www.hoteldonagustin.com/",
    "phone": "+34 952893139",
    "email": "reservas@hoteldonagustin.com",
    "opening_hours": null,
    "amenities": [],
    "source": "OpenStreetMap",
    "osm_id": 319499170,
    "osm_type": "node",
    "city_original": "Málaga",
    "address": "Don Agustín, Calle de la Duquesa de Arcos, San Luis de Sabinillas, Manilva, Costa del Sol Occidental, Málaga, Andalucía, 29292, España",
    "lat": 36.3656571,
    "lon": -5.2260344
  },
  {
    "id": "OSM_node_319539157",
    "name": "Exe Estepona Thalasso & Spa - Adults only",
    "city": "Estepona",
    "category": "Hotel",
    "coordinates": {
      "lat": 36.4628448,
      "lon": -5.0467629
    },
    "star_rating": 4,
    "avg_price_per_night_couple": null,
    "guest_rating": 8.9,
    "website": "https://www.eurostarshotels.com/exe-estepona-thalasso-&-spa---adults-only.html",
    "phone": "(+34) 952 89 94 99",
    "email": "reservas@exeesteponathalassospa.com",
    "opening_hours": null,
    "amenities": [],
    "source": "OpenStreetMap",
    "osm_id": 319539157,
    "osm_type": "node",
    "city_original": "Málaga",
    "address": "Exe Estepona Thalasso & Spa - Adults only, Camino de Brijan, Playa del Sol-Villacana, Miradores del Sol, Costalita, Bel-Air, Estepona, Costa del Sol Occidental, Málaga, Andalucía, 29680, España",
    "lat": 36.4628448,
    "lon": -5.0467629
  },
  {
    "id": "OSM_node_319774060",
    "name": "Altos de Istán",
    "city": "Marbella",
    "category": "Hotel",
    "coordinates": {
      "lat": 36.5773007,
      "lon": -4.9437773
    },
    "star_rating": null,
    "avg_price_per_night_couple": null,
    "guest_rating": 8.1,
    "website": null,
    "phone": null,
    "email": null,
    "opening_hours": null,
    "amenities": [],
    "source": "OpenStreetMap",
    "osm_id": 319774060,
    "osm_type": "node",
    "city_original": "Málaga",
    "address": "Altos de Istán, Calle El Calvario, Istán, Sierra de las Nieves, Málaga, Andalucía, 29611, España",
    "lat": 36.5773007,
    "lon": -4.9437773
  },
  {
    "id": "OSM_node_320431293",
    "name": "Dona Matilde",
    "city": "Estepona",
    "category": "Hotel",
    "coordinates": {
      "lat": 36.4594103,
      "lon": -5.0516941
    },
    "star_rating": 2,
    "avg_price_per_night_couple": null,
    "guest_rating": 7.3,
    "website": null,
    "phone": null,
    "email": null,
    "opening_hours": null,
    "amenities": [],
    "source": "OpenStreetMap",
    "osm_id": 320431293,
    "osm_type": "node",
    "city_original": "Málaga",
    "address": "Dona Matilde, Calle Revuelta, Playa del Sol-Villacana, Villacana Club Estepona, Sun Beach, Bel-Air, Estepona, Costa del Sol Occidental, Málaga, Andalucía, 29689, España",
    "lat": 36.4594103,
    "lon": -5.0516941
  },
  {
    "id": "OSM_node_320834739",
    "name": "Ona Diana Park",
    "city": "Estepona",
    "category": "Hotel",
    "coordinates": {
      "lat": 36.4687095,
      "lon": -5.0195918
    },
    "star_rating": 3,
    "avg_price_per_night_couple": null,
    "guest_rating": 8.4,
    "website": "https://www.onahotels.com/hotel-diana-park-estepona.html",
    "phone": "+34932 02 96 11",
    "email": "info@onahotels.com",
    "opening_hours": null,
    "amenities": [],
    "source": "OpenStreetMap",
    "osm_id": 320834739,
    "osm_type": "node",
    "city_original": "Málaga",
    "address": "Ona Diana Park, Autovía del Mediterráneo, Hacienda del Sol, Las Yucas, Estepona, Costa del Sol Occidental, Málaga, Andalucía, 29688, España",
    "lat": 36.4687095,
    "lon": -5.0195918
  },
  {
    "id": "OSM_node_321265706",
    "name": "Marbella Club Hotel",
    "city": "Marbella",
    "category": "Hotel",
    "coordinates": {
      "lat": 36.5065204,
      "lon": -4.9192157
    },
    "star_rating": null,
    "avg_price_per_night_couple": null,
    "guest_rating": 7.8,
    "website": null,
    "phone": null,
    "email": null,
    "opening_hours": null,
    "amenities": [],
    "source": "OpenStreetMap",
    "osm_id": 321265706,
    "osm_type": "node",
    "city_original": "Málaga",
    "address": "Marbella Club Hotel, Bulevar del Príncipe Alfonso de Hohenlohe, Marbella Real, El Vicario, Marbella, Costa del Sol Occidental, Málaga, Andalucía, 29602, España",
    "lat": 36.5065204,
    "lon": -4.9192157
  },
  {
    "id": "OSM_node_322819020",
    "name": "Hotel Plaza Cavana",
    "city": "Nerja",
    "category": "Hotel",
    "coordinates": {
      "lat": 36.7452832,
      "lon": -3.8776017
    },
    "star_rating": 3,
    "avg_price_per_night_couple": null,
    "guest_rating": 8.1,
    "website": null,
    "phone": null,
    "email": null,
    "opening_hours": null,
    "amenities": [],
    "source": "OpenStreetMap",
    "osm_id": 322819020,
    "osm_type": "node",
    "city_original": "Málaga",
    "lat": 36.7458,
    "lon": -3.8755,
    "address": "Hotel Plaza Cavana, Nerja, Andalusia, Spain"
  },
  {
    "id": "OSM_node_324586148",
    "name": "Puerto Sherry",
    "city": "Cádiz",
    "category": "Hotel",
    "coordinates": {
      "lat": 36.5821195,
      "lon": -6.2552651
    },
    "star_rating": 4,
    "avg_price_per_night_couple": null,
    "guest_rating": 8.9,
    "website": "https://www.hace.es/hotelpuertosherry",
    "phone": null,
    "email": null,
    "opening_hours": null,
    "amenities": [],
    "source": "OpenStreetMap",
    "osm_id": 324586148,
    "osm_type": "node",
    "city_original": "El Puerto de Santa María",
    "address": "Puerto Sherry, Avenida del Pueblo Marinero, La Alhaja, Costa Oeste, El Puerto de Santa María, Bahía de Cádiz, Cádiz, Andalucía, 10049, España",
    "lat": 36.5809831,
    "lon": -6.2550155
  },
  {
    "id": "OSM_node_324676616",
    "name": "Duques de Medinaceli",
    "city": "Cádiz",
    "category": "Hotel",
    "coordinates": {
      "lat": 36.6050442,
      "lon": -6.2209165
    },
    "star_rating": 5,
    "avg_price_per_night_couple": null,
    "guest_rating": 9.4,
    "website": "https://sites.google.com/view/hotel-duques-de-medinaceli/",
    "phone": "+34 956 860 777",
    "email": null,
    "opening_hours": null,
    "amenities": [],
    "source": "OpenStreetMap",
    "osm_id": 324676616,
    "osm_type": "node",
    "city_original": "El Puerto de Santa María",
    "address": "Duques de Medinaceli, Calle Santísima Trinidad, Los Frailes, El Tejar, Sudamérica, El Puerto de Santa María, Bahía de Cádiz, Cádiz, Andalucía, 11500, España",
    "lat": 36.6050442,
    "lon": -6.2209165
  },
  {
    "id": "OSM_node_940890446",
    "name": "Del Mar Hotel",
    "city": "Cádiz",
    "category": "Hotel",
    "coordinates": {
      "lat": 36.5983544,
      "lon": -6.241592
    },
    "star_rating": null,
    "avg_price_per_night_couple": null,
    "guest_rating": 8.2,
    "website": null,
    "phone": null,
    "email": null,
    "opening_hours": null,
    "amenities": [],
    "source": "OpenStreetMap",
    "osm_id": 940890446,
    "osm_type": "node",
    "city_original": "El Puerto de Santa María",
    "address": "Del Mar Hotel, Marina de Guerra, Perpetuo Socorro, El Camaleón, Sudamérica, El Puerto de Santa María, Bahía de Cádiz, Cádiz, Andalucía, 11500, España",
    "lat": 36.5983544,
    "lon": -6.241592
  },
  {
    "id": "OSM_node_2406732441",
    "name": "Las Suites de Puerto Sherry",
    "city": "Cádiz",
    "category": "Hotel",
    "coordinates": {
      "lat": 36.5817053,
      "lon": -6.2573613
    },
    "star_rating": null,
    "avg_price_per_night_couple": null,
    "guest_rating": 7.8,
    "website": "https://www.hace.es/lassuitesdepuertosherry",
    "phone": null,
    "email": null,
    "opening_hours": null,
    "amenities": [],
    "source": "OpenStreetMap",
    "osm_id": 2406732441,
    "osm_type": "node",
    "city_original": "El Puerto de Santa María",
    "address": "Las Suites de Puerto Sherry, Avenida del Pueblo Marinero, Costa Oeste, El Puerto de Santa María, Bahía de Cádiz, Cádiz, Andalucía, 10049, España",
    "lat": 36.5817053,
    "lon": -6.2573613
  },
  {
    "id": "OSM_node_2497945995",
    "name": "Casa del Regidor",
    "city": "Cádiz",
    "category": "Hotel",
    "coordinates": {
      "lat": 36.5998287,
      "lon": -6.2228574
    },
    "star_rating": null,
    "avg_price_per_night_couple": null,
    "guest_rating": 7.7,
    "website": null,
    "phone": null,
    "email": null,
    "opening_hours": null,
    "amenities": [],
    "source": "OpenStreetMap",
    "osm_id": 2497945995,
    "osm_type": "node",
    "city_original": "El Puerto de Santa María",
    "address": "Casa del Regidor, 30, Calle Ribera del Río, Sudamérica, El Puerto de Santa María, Bahía de Cádiz, Cádiz, Andalucía, 11500, España",
    "lat": 36.5998287,
    "lon": -6.2228574
  },
  {
    "id": "OSM_node_3801375689",
    "name": "Hostal Costa Luz",
    "city": "Cádiz",
    "category": "Hotel",
    "coordinates": {
      "lat": 36.5957146,
      "lon": -6.2349322
    },
    "star_rating": null,
    "avg_price_per_night_couple": null,
    "guest_rating": 8.1,
    "website": "http://www.hostalcostaluz.com/",
    "phone": "+34956054701",
    "email": null,
    "opening_hours": null,
    "amenities": [],
    "source": "OpenStreetMap",
    "osm_id": 3801375689,
    "osm_type": "node",
    "city_original": "El Puerto de Santa María",
    "address": "Hostal Costa Luz, 2, Calle Niño del Matadero, El Puerto de Santa María, Bahía de Cádiz, Cádiz, Andalucía, 11500, España",
    "lat": 36.5957146,
    "lon": -6.2349322
  },
  {
    "id": "OSM_node_11492720426",
    "name": "Hotel in El Puerto de Santa María",
    "city": "Cádiz",
    "category": "Hotel",
    "coordinates": {
      "lat": 36.5894797,
      "lon": -6.245572
    },
    "star_rating": null,
    "avg_price_per_night_couple": null,
    "guest_rating": 8.3,
    "website": null,
    "phone": null,
    "email": null,
    "opening_hours": null,
    "amenities": [],
    "source": "OpenStreetMap",
    "osm_id": 11492720426,
    "osm_type": "node",
    "city_original": "El Puerto de Santa María",
    "address": "Duques de Medinaceli, Calle Santísima Trinidad, Los Frailes, El Tejar, Sudamérica, El Puerto de Santa María, Bahía de Cádiz, Cádiz, Andalucía, 11500, España",
    "lat": 36.6050442,
    "lon": -6.2209165
  },
  {
    "id": "OSM_node_13094648284",
    "name": "Hotel Dunas Puerto",
    "city": "Cádiz",
    "category": "Hotel",
    "coordinates": {
      "lat": 36.58926,
      "lon": -6.2445527
    },
    "star_rating": null,
    "avg_price_per_night_couple": null,
    "guest_rating": 7.6,
    "website": "http://www.hoteldunas.es/es/",
    "phone": "+34 956850311",
    "email": "dunas@hoteldunas.es",
    "opening_hours": null,
    "amenities": [],
    "source": "OpenStreetMap",
    "osm_id": 13094648284,
    "osm_type": "node",
    "city_original": "El Puerto de Santa María",
    "address": "Hotel Dunas Puerto, Calle Alhaja, Pago de la Alhaja, El Puerto de Santa María, Bahía de Cádiz, Cádiz, Andalucía, 11500, España",
    "lat": 36.58926,
    "lon": -6.2445527
  },
  {
    "id": "OSM_way_257058132",
    "name": "Monasterio San Miguel",
    "city": "Cádiz",
    "category": "Hotel",
    "coordinates": {
      "lat": 36.6028606,
      "lon": -6.2217809
    },
    "star_rating": null,
    "avg_price_per_night_couple": null,
    "guest_rating": 7.9,
    "website": null,
    "phone": null,
    "email": null,
    "opening_hours": null,
    "amenities": [],
    "source": "OpenStreetMap",
    "osm_id": 257058132,
    "osm_type": "way",
    "city_original": "El Puerto de Santa María",
    "address": "Monasterio San Miguel, Calle Espíritu Santo, Los Frailes, Las Nieves, Sudamérica, El Puerto de Santa María, Bahía de Cádiz, Cádiz, Andalucía, 11500, España",
    "lat": 36.603024,
    "lon": -6.221858
  },
  {
    "id": "OSM_way_949476046",
    "name": "Hotel Puerto Bahía",
    "city": "Cádiz",
    "category": "Hotel",
    "coordinates": {
      "lat": 36.578882,
      "lon": -6.2257983
    },
    "star_rating": 3,
    "avg_price_per_night_couple": null,
    "guest_rating": 7.7,
    "website": "https://www.hotelpuertobahia.com",
    "phone": "+34 956 562 721",
    "email": "reservas@hotelpuertobahia.com",
    "opening_hours": null,
    "amenities": [
      "WiFi",
      "Wheelchair accessible"
    ],
    "source": "OpenStreetMap",
    "osm_id": 949476046,
    "osm_type": "way",
    "city_original": "El Puerto de Santa María",
    "address": "Hotel Puerto Bahía, 38, Avenida de la Paz, Valdelagrana, El Puerto de Santa María, Bahía de Cádiz, Cádiz, Andalucía, 11500, España",
    "lat": 36.5788822,
    "lon": -6.2257129
  },
  {
    "id": "OSM_way_1063227344",
    "name": "Hotel Playa Valdelagrana",
    "city": "Cádiz",
    "category": "Hotel",
    "coordinates": {
      "lat": 36.5838111,
      "lon": -6.2190389
    },
    "star_rating": 2,
    "avg_price_per_night_couple": null,
    "guest_rating": 7.8,
    "website": null,
    "phone": "+34 956052030",
    "email": null,
    "opening_hours": null,
    "amenities": [],
    "source": "OpenStreetMap",
    "osm_id": 1063227344,
    "osm_type": "way",
    "city_original": "El Puerto de Santa María",
    "address": "Hotel Playa Valdelagrana, 4, Avenida de la Paz, Las Viñas, Valdelagrana, El Puerto de Santa María, Bahía de Cádiz, Cádiz, Andalucía, 11500, España",
    "lat": 36.5838111,
    "lon": -6.2190389
  },
  {
    "id": "OSM_way_1063402934",
    "name": "Campomar",
    "city": "Cádiz",
    "category": "Hotel",
    "coordinates": {
      "lat": 36.585837,
      "lon": -6.2208486
    },
    "star_rating": 3,
    "avg_price_per_night_couple": null,
    "guest_rating": 8.3,
    "website": "https://www.hotelcampomar.net/",
    "phone": "+34 956560143",
    "email": "reservas@hotelcampomar.net",
    "opening_hours": null,
    "amenities": [
      "WiFi"
    ],
    "source": "OpenStreetMap",
    "osm_id": 1063402934,
    "osm_type": "way",
    "city_original": "El Puerto de Santa María",
    "address": "Campomar, 12, Calle Gaviota, Las Viñas, Valdelagrana, El Puerto de Santa María, Bahía de Cádiz, Cádiz, Andalucía, 11500, España",
    "lat": 36.585767,
    "lon": -6.22077
  },
  {
    "id": "OSM_node_539170128",
    "name": "Altamarina",
    "city": "Estepona",
    "category": "Hotel",
    "coordinates": {
      "lat": 36.4240732,
      "lon": -5.1482377
    },
    "star_rating": null,
    "avg_price_per_night_couple": null,
    "guest_rating": 7.6,
    "website": null,
    "phone": null,
    "email": null,
    "opening_hours": null,
    "amenities": [],
    "source": "OpenStreetMap",
    "osm_id": 539170128,
    "osm_type": "node",
    "city_original": "Estepona",
    "address": "Altamarina, 32, Avenida de San Lorenzo, Saladavieja, Balcones del Mar, Barriada Islas Canarias, Estepona, Costa del Sol Occidental, Málaga, Andalucía, 29680, España",
    "lat": 36.4240732,
    "lon": -5.1482377
  },
  {
    "id": "OSM_node_1030177104",
    "name": "Hotel in Estepona",
    "city": "Estepona",
    "category": "Hotel",
    "coordinates": {
      "lat": 36.412179,
      "lon": -5.1821473
    },
    "star_rating": null,
    "avg_price_per_night_couple": null,
    "guest_rating": 7.9,
    "website": null,
    "phone": null,
    "email": null,
    "opening_hours": null,
    "amenities": [],
    "source": "OpenStreetMap",
    "osm_id": 1030177104,
    "osm_type": "node",
    "city_original": "Estepona",
    "address": "Reception - Cortijo del Mar Resort, Calle Caserío, El Rocio, El Campanario Estepona, Estepona, Costa del Sol Occidental, Málaga, Andalucía, 29688, España",
    "lat": 36.4712395,
    "lon": -5.021767
  },
  {
    "id": "OSM_node_1030177530",
    "name": "Hotel in Estepona",
    "city": "Estepona",
    "category": "Hotel",
    "coordinates": {
      "lat": 36.4116277,
      "lon": -5.1824118
    },
    "star_rating": null,
    "avg_price_per_night_couple": null,
    "guest_rating": 7.9,
    "website": null,
    "phone": null,
    "email": null,
    "opening_hours": null,
    "amenities": [],
    "source": "OpenStreetMap",
    "osm_id": 1030177530,
    "osm_type": "node",
    "city_original": "Estepona",
    "address": "Reception - Cortijo del Mar Resort, Calle Caserío, El Rocio, El Campanario Estepona, Estepona, Costa del Sol Occidental, Málaga, Andalucía, 29688, España",
    "lat": 36.4712395,
    "lon": -5.021767
  },
  {
    "id": "OSM_node_1030179206",
    "name": "Hotel in Estepona",
    "city": "Estepona",
    "category": "Hotel",
    "coordinates": {
      "lat": 36.4127034,
      "lon": -5.181582
    },
    "star_rating": null,
    "avg_price_per_night_couple": null,
    "guest_rating": 7.7,
    "website": null,
    "phone": null,
    "email": null,
    "opening_hours": null,
    "amenities": [],
    "source": "OpenStreetMap",
    "osm_id": 1030179206,
    "osm_type": "node",
    "city_original": "Estepona",
    "address": "Reception - Cortijo del Mar Resort, Calle Caserío, El Rocio, El Campanario Estepona, Estepona, Costa del Sol Occidental, Málaga, Andalucía, 29688, España",
    "lat": 36.4712395,
    "lon": -5.021767
  },
  {
    "id": "OSM_node_1030203271",
    "name": "Hotel in Estepona",
    "city": "Estepona",
    "category": "Hotel",
    "coordinates": {
      "lat": 36.4110719,
      "lon": -5.183044
    },
    "star_rating": null,
    "avg_price_per_night_couple": null,
    "guest_rating": 8.2,
    "website": null,
    "phone": null,
    "email": null,
    "opening_hours": null,
    "amenities": [],
    "source": "OpenStreetMap",
    "osm_id": 1030203271,
    "osm_type": "node",
    "city_original": "Estepona",
    "address": "Reception - Cortijo del Mar Resort, Calle Caserío, El Rocio, El Campanario Estepona, Estepona, Costa del Sol Occidental, Málaga, Andalucía, 29688, España",
    "lat": 36.4712395,
    "lon": -5.021767
  },
  {
    "id": "OSM_node_1709250402",
    "name": "Kempinski",
    "city": "Estepona",
    "category": "Hotel",
    "coordinates": {
      "lat": 36.4362916,
      "lon": -5.1079365
    },
    "star_rating": 5,
    "avg_price_per_night_couple": null,
    "guest_rating": 9.2,
    "website": "https://www.kempinski.com/es/hotel-bahia",
    "phone": "+34 952 809 500",
    "email": null,
    "opening_hours": null,
    "amenities": [],
    "source": "OpenStreetMap",
    "osm_id": 1709250402,
    "osm_type": "node",
    "city_original": "Estepona",
    "address": "Kempinski, Autovía del Mediterráneo, Reinoso, Laguna, El Padrón, Estepona, Costa del Sol Occidental, Málaga, Andalucía, 29680, España",
    "lat": 36.4362916,
    "lon": -5.1079365
  },
  {
    "id": "OSM_node_1712005498",
    "name": "Hotel Ikos Andalusia",
    "city": "Estepona",
    "category": "Hotel",
    "coordinates": {
      "lat": 36.4519517,
      "lon": -5.0602557
    },
    "star_rating": null,
    "avg_price_per_night_couple": null,
    "guest_rating": 7.7,
    "website": null,
    "phone": null,
    "email": null,
    "opening_hours": null,
    "amenities": [],
    "source": "OpenStreetMap",
    "osm_id": 1712005498,
    "osm_type": "node",
    "city_original": "Estepona",
    "address": "Hotel Ikos Andalusia, Senda Litoral, Guadalmansa Playa, Resinera-Voladilla, Estepona, Costa del Sol Occidental, Málaga, Andalucía, 29689, España",
    "lat": 36.4519517,
    "lon": -5.0602557
  },
  {
    "id": "OSM_node_2354576128",
    "name": "Autosole",
    "city": "Estepona",
    "category": "Hotel",
    "coordinates": {
      "lat": 36.459685,
      "lon": -5.051325
    },
    "star_rating": null,
    "avg_price_per_night_couple": null,
    "guest_rating": 7.9,
    "website": null,
    "phone": null,
    "email": null,
    "opening_hours": null,
    "amenities": [],
    "source": "OpenStreetMap",
    "osm_id": 2354576128,
    "osm_type": "node",
    "city_original": "Estepona",
    "address": "Autosole, Avenida Marqués del Duero, Playa del Sol-Villacana, Villacana Club Estepona, Cancelada, Bel-Air, Estepona, Costa del Sol Occidental, Málaga, Andalucía, 29689, España",
    "lat": 36.459685,
    "lon": -5.051325
  },
  {
    "id": "OSM_node_3473127904",
    "name": "Hospedería V Centenario",
    "city": "Estepona",
    "category": "Hotel",
    "coordinates": {
      "lat": 36.4608485,
      "lon": -5.0538253
    },
    "star_rating": 1,
    "avg_price_per_night_couple": null,
    "guest_rating": 6.8,
    "website": null,
    "phone": null,
    "email": null,
    "opening_hours": null,
    "amenities": [],
    "source": "OpenStreetMap",
    "osm_id": 3473127904,
    "osm_type": "node",
    "city_original": "Estepona",
    "address": "Hospedería V Centenario, Avenida Marqués del Duero, Playa del Sol-Villacana, Villacana Club Estepona, Cancelada, Bel-Air, Estepona, Costa del Sol Occidental, Málaga, Andalucía, 29689, España",
    "lat": 36.4608485,
    "lon": -5.0538253
  },
  {
    "id": "OSM_node_3986988321",
    "name": "Hotel Buenavista",
    "city": "Estepona",
    "category": "Hotel",
    "coordinates": {
      "lat": 36.4232979,
      "lon": -5.1470539
    },
    "star_rating": null,
    "avg_price_per_night_couple": null,
    "guest_rating": 7.7,
    "website": "https://buenavistaestepona.com/",
    "phone": "+34 952 80 01 37",
    "email": null,
    "opening_hours": null,
    "amenities": [],
    "source": "OpenStreetMap",
    "osm_id": 3986988321,
    "osm_type": "node",
    "city_original": "Estepona",
    "address": "Hotel Buenavista, 180, Paseo Pedro Manrique, Saladavieja, Barriada Blas Infante, Barriada Islas Canarias, Estepona, Costa del Sol Occidental, Málaga, Andalucía, 29680, España",
    "lat": 36.4232979,
    "lon": -5.1470539
  },
  {
    "id": "OSM_node_4223852333",
    "name": "Hotel Las Dunas",
    "city": "Estepona",
    "category": "Hotel",
    "coordinates": {
      "lat": 36.4529403,
      "lon": -5.0685729
    },
    "star_rating": null,
    "avg_price_per_night_couple": null,
    "guest_rating": 7.8,
    "website": null,
    "phone": null,
    "email": null,
    "opening_hours": null,
    "amenities": [],
    "source": "OpenStreetMap",
    "osm_id": 4223852333,
    "osm_type": "node",
    "city_original": "Estepona",
    "address": "Hotel Las Dunas, Paseo Maritimo, Cabo Bermejo, Las Dunas Park, Resinera-Voladilla, Estepona, Costa del Sol Occidental, Málaga, Andalucía, 29689, España",
    "lat": 36.4529403,
    "lon": -5.0685729
  },
  {
    "id": "OSM_node_4348450789",
    "name": "Hotel H10 Estepona Palace",
    "city": "Estepona",
    "category": "Hotel",
    "coordinates": {
      "lat": 36.4171267,
      "lon": -5.1731867
    },
    "star_rating": null,
    "avg_price_per_night_couple": null,
    "guest_rating": 8.4,
    "website": null,
    "phone": null,
    "email": null,
    "opening_hours": null,
    "amenities": [],
    "source": "OpenStreetMap",
    "osm_id": 4348450789,
    "osm_type": "node",
    "city_original": "Estepona",
    "address": "Hotel H10 Estepona Palace, Avenida del Carmen, Urbanización Altos de Guadalobon, Urbanización Puerto Estepona (Seghers), Estepona, Costa del Sol Occidental, Málaga, Andalucía, 29680, España",
    "lat": 36.4171267,
    "lon": -5.1731867
  },
  {
    "id": "MANUAL_CADIZ_001",
    "name": "Hotel Parador de Cádiz",
    "city": "Cádiz",
    "category": "Hotel",
    "coordinates": {
      "lat": 36.5289,
      "lon": -6.2931
    },
    "star_rating": 4,
    "avg_price_per_night_couple": 120,
    "guest_rating": 8.8,
    "website": null,
    "phone": null,
    "amenities": [
      "WiFi",
      "Swimming pool",
      "Restaurant"
    ],
    "source": "Manual",
    "address": "Parador de Cádiz, 9, Avenida Duque de Nájera, Balón, Cádiz, Bahía de Cádiz, Cádiz, Andalucía, 11002, España",
    "lat": 36.534445,
    "lon": -6.3059171
  },
  {
    "id": "MANUAL_CADIZ_003",
    "name": "Hotel Spa Cádiz Plaza",
    "city": "Jerez",
    "category": "Hotel",
    "coordinates": {
      "lat": 36.528,
      "lon": -6.295
    },
    "star_rating": 4,
    "avg_price_per_night_couple": 110,
    "guest_rating": 8.5,
    "website": null,
    "phone": null,
    "amenities": [
      "WiFi",
      "Spa"
    ],
    "source": "Manual",
    "address": "Hotel Jerez & Spa, Avenida Alcalde Álvaro Domecq, El Bosque, Jerez de la Frontera, Campiña de Jerez, Cádiz, Andalucía, 11407, España",
    "lat": 36.6989478,
    "lon": -6.125895
  },
  {
    "id": "MANUAL_RONDA_001",
    "name": "Hotel Catalonia Ronda",
    "city": "Ronda",
    "category": "Hotel",
    "coordinates": {
      "lat": 36.7425,
      "lon": -5.1642
    },
    "star_rating": 4,
    "avg_price_per_night_couple": 100,
    "guest_rating": 8.7,
    "website": null,
    "phone": null,
    "amenities": [
      "WiFi",
      "Restaurant"
    ],
    "source": "Manual",
    "address": "Catalonia Ronda, 16, Calle Virgen de la Paz, Ronda, Serranía de Ronda, Málaga, Andalucía, 29400, España",
    "lat": 36.742693,
    "lon": -5.16651
  },
  {
    "id": "MANUAL_RONDA_002",
    "name": "Parador de Ronda",
    "city": "Ronda",
    "category": "Hotel",
    "coordinates": {
      "lat": 36.7408,
      "lon": -5.1653
    },
    "star_rating": 4,
    "avg_price_per_night_couple": 130,
    "guest_rating": 9.2,
    "website": null,
    "phone": null,
    "amenities": [
      "WiFi",
      "Restaurant",
      "Parking"
    ],
    "source": "Manual",
    "address": "Parador de Turismo de Ronda, Plaza de España, Ronda, Serranía de Ronda, Málaga, Andalucía, 29400, España",
    "lat": 36.7410298,
    "lon": -5.1664636
  },
  {
    "id": "MANUAL_ANTEQUERA_001",
    "name": "Parador de Antequera",
    "city": "Antequera",
    "category": "Hotel",
    "coordinates": {
      "lat": 37.0236,
      "lon": -4.5481
    },
    "star_rating": 4,
    "avg_price_per_night_couple": 95,
    "guest_rating": 8.5,
    "website": null,
    "phone": null,
    "amenities": [
      "WiFi",
      "Swimming pool"
    ],
    "source": "Manual",
    "address": "Parador de Antequera, Paseo de García del Olmo, Antequera, Málaga, Andalucía, 29200, España",
    "lat": 37.0253125,
    "lon": -4.5645444
  },
  {
    "id": "MANUAL_ANTEQUERA_002",
    "name": "Hotel Convento La Magdalena",
    "city": "Antequera",
    "category": "Hotel",
    "coordinates": {
      "lat": 37.02,
      "lon": -4.55
    },
    "star_rating": 3,
    "avg_price_per_night_couple": 80,
    "guest_rating": 8.4,
    "website": null,
    "phone": null,
    "amenities": [
      "WiFi"
    ],
    "source": "Manual",
    "address": "Hotel Convento La Magdalena, Sendero Las Arquillas, Antequera, Málaga, Andalucía, 29200, España",
    "lat": 37.0043795,
    "lon": -4.6031794
  }
]