[
  {
    "name": "Sibuya Urban Sushi Bar Huelva",
    "topic": "Japanese, Sushi",
    "rating": 4.7,
    "city": "Huelva",
    "address": ""
  },
  {
    "name": "Azabache",
    "topic": "Mediterranean, European",
    "rating": 4.5,
    "city": "Huelva",
    "address": "Bar Restaurante Azabache, Calle Vázquez López, Huelva, Comarca Metropolitana de Huelva, Huelva, Andalucía, 21001, España",
    "lat": 37.255314,
    "lon": -6.95214
  },
  {
    "name": "Bar Taberna Er Chiclanero",
    "topic": "Bar, Seafood",
    "rating": 4.7,
    "city": "Huelva",
    "address": ""
  },
  {
    "name": "Masero",
    "topic": "Mediterranean, Spanish",
    "rating": 4.7,
    "city": "Huelva",
    "address": "Cueva Masero, Camino del Rincón, Fuentes de León, Sierra de Huelva, Badajoz, Extremadura, España",
    "lat": 38.0258849,
    "lon": -6.4953842
  },
  {
    "name": "La Florida",
    "topic": "Spanish, Healthy",
    "rating": 4.7,
    "city": "Huelva",
    "address": "La Florida, Valverde del Camino, El Andévalo, Huelva, Andalucía, España",
    "lat": 37.5239545,
    "lon": -6.7046554
  },
  {
    "name": "Buena Vida Huelva",
    "topic": "Mediterranean, Spanish",
    "rating": 4.7,
    "city": "Huelva",
    "address": ""
  },
  {
    "name": "Mar de Altura",
    "topic": "Mediterranean, Spanish",
    "rating": 4.6,
    "city": "Huelva",
    "address": ""
  },
  {
    "name": "Bar Restaurante Juan Jose",
    "topic": "Mediterranean, Spanish",
    "rating": 4.3,
    "city": "Huelva",
    "address": ""
  },
  {
    "name": "Empanadas Malvón Huelva",
    "topic": "Fast Food, Argentinean",
    "rating": 4.9,
    "city": "Huelva",
    "address": "Malvón, Calle Arquitecto Pérez Carasa, Huelva, Comarca Metropolitana de Huelva, Huelva, Andalucía, 21003, España",
    "lat": 37.2562074,
    "lon": -6.9507864
  },
  {
    "name": "Bar Pappis",
    "topic": "Mediterranean, Spanish",
    "rating": 4.5,
    "city": "Huelva",
    "address": ""
  },
  {
    "name": "Gastrobar Cosas Buenas",
    "topic": "Mediterranean, European",
    "rating": 4.7,
    "city": "Huelva",
    "address": ""
  },
  {
    "name": "La Florida Centro",
    "topic": "Mediterranean, Spanish",
    "rating": 4.9,
    "city": "Huelva",
    "address": ""
  },
  {
    "name": "kalaka vinos y tapas",
    "topic": "Mediterranean, European",
    "rating": 4.2,
    "city": "Huelva",
    "address": ""
  },
  {
    "name": "Bar Taperia Entre Amigos",
    "topic": "Bar, Mediterranean",
    "rating": 4.4,
    "city": "Huelva",
    "address": ""
  },
  {
    "name": "Pura Huelva",
    "topic": "Seafood, Mediterranean",
    "rating": 4.6,
    "city": "Huelva",
    "address": "Playa de Santa Pura, Lepe, Costa Occidental, Huelva, Andalucía, España",
    "lat": 37.2065409,
    "lon": -7.1877968
  },
  {
    "name": "El Portichuelo",
    "topic": "Mediterranean, European",
    "rating": 4.0,
    "city": "Huelva",
    "address": ""
  },
  {
    "name": "Restaurante La Fonda De María Mandao",
    "topic": "Mediterranean, European",
    "rating": 4.3,
    "city": "Huelva",
    "address": ""
  },
  {
    "name": "Noviembre Tapas y Vinos",
    "topic": "Mediterranean, European",
    "rating": 4.3,
    "city": "Huelva",
    "address": ""
  },
  {
    "name": "La Tribu",
    "topic": "Cafe, Mediterranean",
    "rating": 4.5,
    "city": "Huelva",
    "address": "La Tribu, Avenida Alcalde Pedro Rodríguez González, Huelva, Comarca Metropolitana de Huelva, Huelva, Andalucía, 21005, España",
    "lat": 37.2718371,
    "lon": -6.9297769
  },
  {
    "name": "La Teja",
    "topic": "Mediterranean, Spanish",
    "rating": 4.1,
    "city": "Huelva",
    "address": "La Teja, Almonte, El Condado, Huelva, Andalucía, España",
    "lat": 37.2479536,
    "lon": -6.597892
  },
  {
    "name": "Bar los Maestres",
    "topic": "Bars & Pubs, Seafood",
    "rating": 4.7,
    "city": "Huelva",
    "address": "Bar Los Maestres, Avenida de Italia, Huelva, Comarca Metropolitana de Huelva, Huelva, Andalucía, 21002, España",
    "lat": 37.2558266,
    "lon": -6.9567105
  },
  {
    "name": "Parábola Restaurante",
    "topic": "Brew Pub, International",
    "rating": 4.8,
    "city": "Huelva",
    "address": ""
  },
  {
    "name": "Coma Tapas&Punto",
    "topic": "Mediterranean, Spanish",
    "rating": 4.4,
    "city": "Huelva",
    "address": "Tapas&Punto Coma, Calle Pablo Rada, Huelva, Comarca Metropolitana de Huelva, Huelva, Andalucía, 21003, España",
    "lat": 37.2588305,
    "lon": -6.9497829
  },
  {
    "name": "Restaurante Gran Vía Uno",
    "topic": "Mediterranean, Spanish",
    "rating": 4.2,
    "city": "Huelva",
    "address": "Gran Vía Uno, 1, Avenida de Martín Alonso Pinzón, Huelva, Comarca Metropolitana de Huelva, Huelva, Andalucía, 21003, España",
    "lat": 37.2568899,
    "lon": -6.9506983
  },
  {
    "name": "Albero Gastro y Folklore",
    "topic": "Mediterranean, Spanish",
    "rating": 4.3,
    "city": "Huelva",
    "address": ""
  },
  {
    "name": "La Bohemia",
    "topic": "Mediterranean, European",
    "rating": 4.1,
    "city": "Huelva",
    "address": ""
  },
  {
    "name": "Bar Casa Manuela",
    "topic": "Mediterranean, Spanish",
    "rating": 4.5,
    "city": "Huelva",
    "address": ""
  },
  {
    "name": "Las Meigas",
    "topic": "Japanese, Mediterranean",
    "rating": 4.4,
    "city": "Huelva",
    "address": ""
  },
  {
    "name": "Restaurante Macha",
    "topic": "Seafood, Mediterranean",
    "rating": 4.0,
    "city": "Huelva",
    "address": "La Macha, Plaza de Bajamar, La Antilla, Lepe, Costa Occidental, Huelva, Andalucía, 21449, España",
    "lat": 37.2054324,
    "lon": -7.2175023
  },
  {
    "name": "Charlotte Huelva",
    "topic": "Mediterranean, Spanish",
    "rating": 4.0,
    "city": "Huelva",
    "address": ""
  },
  {
    "name": "Amor Amar Puerto",
    "topic": "Mediterranean, Spanish",
    "rating": 4.4,
    "city": "Huelva",
    "address": ""
  },
  {
    "name": "Bar Jerez",
    "topic": "Mediterranean, European",
    "rating": 4.7,
    "city": "Huelva",
    "address": ""
  },
  {
    "name": "Restaurante Don Quijote",
    "topic": "Mediterranean, Spanish",
    "rating": 4.2,
    "city": "Huelva",
    "address": ""
  },
  {
    "name": "Bar Paco Moreno",
    "topic": "Seafood, Spanish",
    "rating": 4.0,
    "city": "Huelva",
    "address": ""
  },
  {
    "name": "Royal Tandoori Indian Restaurant",
    "topic": "Indian, Healthy",
    "rating": 4.7,
    "city": "Huelva",
    "address": ""
  },
  {
    "name": "Cerveceria El Gallo Negro",
    "topic": "Mediterranean, Spanish",
    "rating": 4.4,
    "city": "Huelva",
    "address": "Cervecería El Gallo Negro, Plaza de Quintero Báez, Huelva, Comarca Metropolitana de Huelva, Huelva, Andalucía, 21003, España",
    "lat": 37.2583629,
    "lon": -6.9498513
  },
  {
    "name": "Rocataliata",
    "topic": "Mediterranean, Spanish",
    "rating": 4.1,
    "city": "Huelva",
    "address": "Rocataliata, 44, Calle Rico, Huelva, Comarca Metropolitana de Huelva, Huelva, Andalucía, 21003, España",
    "lat": 37.254497,
    "lon": -6.9531056
  },
  {
    "name": "Bar La Estrella",
    "topic": "Mediterranean, Spanish",
    "rating": 4.4,
    "city": "Huelva",
    "address": "Bar La Estrella, Calle Méndez Núñez, Huelva, Comarca Metropolitana de Huelva, Huelva, Andalucía, 21003, España",
    "lat": 37.2581076,
    "lon": -6.9523961
  },
  {
    "name": "El Rinconcito Huelva",
    "topic": "Mediterranean, European",
    "rating": 4.0,
    "city": "Huelva",
    "address": "El Rinconcito, Calle Padre Marchena, Huelva, Comarca Metropolitana de Huelva, Huelva, Andalucía, 21003, España",
    "lat": 37.255544,
    "lon": -6.9471311
  },
  {
    "name": "El Rincon De Ana",
    "topic": "Bars & Pubs, Spanish",
    "rating": 4.7,
    "city": "Huelva",
    "address": ""
  },
  {
    "name": "El Rincon de La Rocina",
    "topic": "Mediterranean",
    "rating": 4.0,
    "city": "Huelva",
    "address": ""
  },
  {
    "name": "Pika Pika Tapas",
    "topic": "Mediterranean, Spanish",
    "rating": 4.3,
    "city": "Huelva",
    "address": ""
  },
  {
    "name": "Nómada Gran Vía",
    "topic": "Italian, Fusion",
    "rating": 4.5,
    "city": "Huelva",
    "address": ""
  },
  {
    "name": "Bar Eclipse",
    "topic": "Mediterranean, Spanish",
    "rating": 4.4,
    "city": "Huelva",
    "address": ""
  },
  {
    "name": "Smoker barbacoa",
    "topic": "Barbecue",
    "rating": 5.0,
    "city": "Huelva",
    "address": ""
  },
  {
    "name": "Taberna El Condado",
    "topic": "Mediterranean, Spanish",
    "rating": 4.0,
    "city": "Huelva",
    "address": "Taberna de Manuela, Paseo Marismeño, El Rocío, Almonte, El Condado, Huelva, Andalucía, 21750, España",
    "lat": 37.1311578,
    "lon": -6.4857998
  },
  {
    "name": "Restaurante Pizzeria Damichi",
    "topic": "Italian, Pizza",
    "rating": 4.0,
    "city": "Huelva",
    "address": ""
  },
  {
    "name": "Bodega Madreana",
    "topic": "Mediterranean, Spanish",
    "rating": 4.3,
    "city": "Huelva",
    "address": "Bodega Madreana, Plaza de la Virgen del Refugio, Huelva, Comarca Metropolitana de Huelva, Huelva, Andalucía, 21003, España",
    "lat": 37.2591763,
    "lon": -6.9491874
  },
  {
    "name": "La Tagliatella Huelva",
    "topic": "Italian, Mediterranean",
    "rating": 4.8,
    "city": "Huelva",
    "address": ""
  },
  {
    "name": "Armaxokera",
    "topic": "Mediterranean, Spanish",
    "rating": 4.1,
    "city": "Huelva",
    "address": ""
  },
  {
    "name": "Marijata",
    "topic": "Mediterranean, Spanish",
    "rating": 4.4,
    "city": "Huelva",
    "address": "Marijata, Nuevo Portil, Cartaya, Costa Occidental, Huelva, Andalucía, 21459, España",
    "lat": 37.227538,
    "lon": -7.0785114
  },
  {
    "name": "El Camilo de la Merced",
    "topic": "Italian, Pizza",
    "rating": 4.0,
    "city": "Huelva",
    "address": ""
  },
  {
    "name": "Restaurante Galería Como En Casa",
    "topic": "European, Spanish",
    "rating": 4.5,
    "city": "Huelva",
    "address": ""
  },
  {
    "name": "Gastrobar Costa de la Luz",
    "topic": "Mediterranean, Spanish",
    "rating": 4.7,
    "city": "Huelva",
    "address": ""
  },
  {
    "name": "Noodlemania Urban Food",
    "topic": "Japanese, Fast Food",
    "rating": 4.2,
    "city": "Huelva",
    "address": ""
  },
  {
    "name": "La Carmelina",
    "topic": "Mediterranean, Spanish",
    "rating": 4.5,
    "city": "Huelva",
    "address": ""
  },
  {
    "name": "Restaurante El Palangre",
    "topic": "International, Mediterranean",
    "rating": 3.9,
    "city": "Huelva",
    "address": ""
  },
  {
    "name": "Bar La Paloma",
    "topic": "Mediterranean, Spanish",
    "rating": 4.4,
    "city": "Huelva",
    "address": ""
  },
  {
    "name": "El Tercer Tiempo",
    "topic": "Brew Pub, International",
    "rating": 4.5,
    "city": "Huelva",
    "address": ""
  },
  {
    "name": "Lemon Tree Gastrobar",
    "topic": "American, Mediterranean",
    "rating": 4.6,
    "city": "Huelva",
    "address": ""
  },
  {
    "name": "Pizzería La Favorita",
    "topic": "Italian, Pizza",
    "rating": 4.0,
    "city": "Huelva",
    "address": ""
  },
  {
    "name": "La Traviesa Food&Cocktail Huelva",
    "topic": "Mediterranean, Spanish",
    "rating": 4.3,
    "city": "Huelva",
    "address": ""
  },
  {
    "name": "Burguer Hermanos Rodríguez",
    "topic": "American, German",
    "rating": 4.0,
    "city": "Huelva",
    "address": ""
  },
  {
    "name": "Casa Aconde",
    "topic": "European, Spanish",
    "rating": 4.2,
    "city": "Huelva",
    "address": ""
  },
  {
    "name": "Casa Grego",
    "topic": "Seafood, Mediterranean",
    "rating": 4.3,
    "city": "Huelva",
    "address": ""
  },
  {
    "name": "La Gamberra",
    "topic": "Bar, Mediterranean",
    "rating": 4.0,
    "city": "Huelva",
    "address": "La Gamberra, Plaza de Isabel la Católica, Huelva, Comarca Metropolitana de Huelva, Huelva, Andalucía, 21003, España",
    "lat": 37.2544048,
    "lon": -6.9487488
  },
  {
    "name": "Bar-Restaurante Rezon",
    "topic": "Seafood, Mediterranean",
    "rating": 4.8,
    "city": "Huelva",
    "address": ""
  },
  {
    "name": "Cervecería El Reencuentro Cafetería",
    "topic": "Spanish",
    "rating": 4.8,
    "city": "Huelva",
    "address": ""
  },
  {
    "name": "Abacería La Bronce",
    "topic": "Mediterranean, Barbecue",
    "rating": 4.5,
    "city": "Huelva",
    "address": ""
  },
  {
    "name": "Tabanco Don Pablo",
    "topic": "Cafe, Mediterranean",
    "rating": 4.5,
    "city": "Huelva",
    "address": ""
  },
  {
    "name": "Casa Calviño",
    "topic": "Spanish",
    "rating": 4.1,
    "city": "Huelva",
    "address": ""
  },
  {
    "name": "Restaurante La Tabernita",
    "topic": "Spanish",
    "rating": 4.0,
    "city": "Huelva",
    "address": ""
  },
  {
    "name": "El Rey del Pollo Asado",
    "topic": "Steakhouse, Fast Food",
    "rating": 4.2,
    "city": "Huelva",
    "address": ""
  },
  {
    "name": "Bossé Bistró",
    "topic": "Spanish",
    "rating": 4.8,
    "city": "Huelva",
    "address": ""
  },
  {
    "name": "Bar Los Varales",
    "topic": "Mediterranean, Spanish",
    "rating": 4.2,
    "city": "Huelva",
    "address": ""
  },
  {
    "name": "Restaurante Equus",
    "topic": "Mediterranean",
    "rating": 4.7,
    "city": "Huelva",
    "address": ""
  },
  {
    "name": "Tabernas Azul y Plata",
    "topic": "International, Mediterranean",
    "rating": 4.5,
    "city": "Huelva",
    "address": ""
  },
  {
    "name": "5 Sentidos",
    "topic": "Bar, Cafe",
    "rating": 4.0,
    "city": "Huelva",
    "address": ""
  },
  {
    "name": "Burguer bar Las Colombianas",
    "topic": "Brazilian, European",
    "rating": 5.0,
    "city": "Huelva",
    "address": ""
  },
  {
    "name": "Makkadamia Churrería",
    "topic": "French",
    "rating": 4.0,
    "city": "Huelva",
    "address": ""
  },
  {
    "name": "Pizzería Yomy",
    "topic": "Mediterranean, Spanish",
    "rating": 5.0,
    "city": "Huelva",
    "address": ""
  },
  {
    "name": "Restaurante Mar De Gloria",
    "topic": "Mediterranean, Spanish",
    "rating": 4.9,
    "city": "Antequera",
    "address": ""
  },
  {
    "name": "Mesón Adarve",
    "topic": "Mediterranean, Spanish",
    "rating": 4.8,
    "city": "Antequera",
    "address": "Mesón Adarve, Calle Merecillas, Antequera, Málaga, Andalucía, 29200, España",
    "lat": 37.0209389,
    "lon": -4.5611601
  },
  {
    "name": "Recuerdos Tapas Bodega",
    "topic": "Mediterranean, Spanish",
    "rating": 4.8,
    "city": "Antequera",
    "address": "Recuerdos Tapas Bodega, Calle Laguna, Antequera, Málaga, Andalucía, 29200, España",
    "lat": 37.0208271,
    "lon": -4.5616044
  },
  {
    "name": "Caserio de San Benito",
    "topic": "Mediterranean, Spanish",
    "rating": 4.6,
    "city": "Antequera",
    "address": ""
  },
  {
    "name": "Restaurante Abrasador Bodegas Triana",
    "topic": "Mediterranean, Spanish",
    "rating": 4.7,
    "city": "Antequera",
    "address": ""
  },
  {
    "name": "Mesón Casa Diego",
    "topic": "Mediterranean, European",
    "rating": 4.5,
    "city": "Antequera",
    "address": "Méson Casa Diego, Calle Merecillas, Antequera, Málaga, Andalucía, 29200, España",
    "lat": 37.0209708,
    "lon": -4.5613707
  },
  {
    "name": "Arte de Cozina",
    "topic": "Mediterranean, European",
    "rating": 4.4,
    "city": "Antequera",
    "address": "Arte de Cozina, 27, Calle Calzada, Antequera, Málaga, Andalucía, 29200, España",
    "lat": 37.0183284,
    "lon": -4.5579799
  },
  {
    "name": "Alma de Triana Taberna Urbana",
    "topic": "Bars & Pubs, Mediterranean",
    "rating": 4.7,
    "city": "Antequera",
    "address": ""
  },
  {
    "name": "La Cayetana Restaurante Andaluz",
    "topic": "Bar, Mediterranean",
    "rating": 4.7,
    "city": "Antequera",
    "address": ""
  },
  {
    "name": "A La Fuerza",
    "topic": "Cafe, Mediterranean",
    "rating": 4.4,
    "city": "Antequera",
    "address": "Bar A La Fuerza, 32, Alameda de Andalucía, Antequera, Málaga, Andalucía, 29200, España",
    "lat": 37.0215378,
    "lon": -4.5649227
  },
  {
    "name": "Mesón La Bombonera Casa Memé",
    "topic": "Steakhouse, Mediterranean",
    "rating": 4.6,
    "city": "Antequera",
    "address": ""
  },
  {
    "name": "Restaurante Lorenzo y María",
    "topic": "Mediterranean, European",
    "rating": 4.3,
    "city": "Antequera",
    "address": ""
  },
  {
    "name": "Cervecería Casa Diego",
    "topic": "International, Mediterranean",
    "rating": 4.7,
    "city": "Antequera",
    "address": ""
  },
  {
    "name": "Restaurante A Mi Manera",
    "topic": "Mexican, Cafe",
    "rating": 5.0,
    "city": "Antequera",
    "address": "A mi Manera, Calle Diego Ponce, Antequera, Málaga, Andalucía, 29200, España",
    "lat": 37.0191142,
    "lon": -4.5592707
  },
  {
    "name": "Loulu Bistró",
    "topic": "Bar, Cafe",
    "rating": 4.5,
    "city": "Antequera",
    "address": ""
  },
  {
    "name": "Restaurante Campo de Golf",
    "topic": "International, Mediterranean",
    "rating": 4.8,
    "city": "Antequera",
    "address": ""
  },
  {
    "name": "Cafeteria Restaurante \"El Mercado\"",
    "topic": "Cafe, Mediterranean",
    "rating": 4.4,
    "city": "Antequera",
    "address": ""
  },
  {
    "name": "Restaurant Torcal Alto",
    "topic": "Cafe, Mediterranean",
    "rating": 4.5,
    "city": "Antequera",
    "address": ""
  },
  {
    "name": "Mesón Coso Viejo",
    "topic": "Steakhouse, Pizza",
    "rating": 4.2,
    "city": "Antequera",
    "address": "Mesón Ibérico Dehesa Las Hazuelas, Coso Viejo, Antequera, Málaga, Andalucía, 29200, España",
    "lat": 37.0167008,
    "lon": -4.5577873
  },
  {
    "name": "Restaurante Leila",
    "topic": "Mediterranean, European",
    "rating": 4.1,
    "city": "Antequera",
    "address": "Leila, Calle Nueva, Antequera, Málaga, Andalucía, 29200, España",
    "lat": 37.0161884,
    "lon": -4.5594368
  },
  {
    "name": "La Mafia Se Sienta A La Mesa",
    "topic": "Italian, Pizza",
    "rating": 4.8,
    "city": "Antequera",
    "address": ""
  },
  {
    "name": "Malabar Gastro.taberna",
    "topic": "Mediterranean, European",
    "rating": 4.5,
    "city": "Antequera",
    "address": ""
  },
  {
    "name": "Bar Carrera",
    "topic": "Mediterranean, Spanish",
    "rating": 4.3,
    "city": "Antequera",
    "address": "Bar Carrera, 18, Calle Carrera de Madre Carmen, Antequera, Málaga, Andalucía, 29200, España",
    "lat": 37.0192571,
    "lon": -4.5553537
  },
  {
    "name": "El Jardín",
    "topic": "Cafe, European",
    "rating": 4.9,
    "city": "Antequera",
    "address": "Cafetería Crepería El Jardín, Plaza de Castilla, Antequera, Málaga, Andalucía, 29200, España",
    "lat": 37.021195,
    "lon": -4.5663766
  },
  {
    "name": "Ristorante Italiano Il Castello",
    "topic": "Italian, Pizza",
    "rating": 4.4,
    "city": "Antequera",
    "address": ""
  },
  {
    "name": "Taberna el Rincón de Lola",
    "topic": "Mediterranean, Spanish",
    "rating": 4.1,
    "city": "Antequera",
    "address": "Taberna El Rincón de Lola, 8, Calle Encarnación, Antequera, Málaga, Andalucía, 29200, España",
    "lat": 37.0165204,
    "lon": -4.5584212
  },
  {
    "name": "Restaurante Nela Sushi Bar & Fusión Food",
    "topic": "Japanese, Sushi",
    "rating": 4.8,
    "city": "Antequera",
    "address": ""
  },
  {
    "name": "hotel restaurant Castilla",
    "topic": "Mediterranean, European",
    "rating": 4.2,
    "city": "Antequera",
    "address": ""
  },
  {
    "name": "Meson Restaurante Juan Manuel",
    "topic": "Mediterranean, Spanish",
    "rating": 4.0,
    "city": "Antequera",
    "address": ""
  },
  {
    "name": "Meson Hace Buche",
    "topic": "Spanish",
    "rating": 4.6,
    "city": "Antequera",
    "address": ""
  },
  {
    "name": "Baraka Restaurante",
    "topic": "Mediterranean, Spanish",
    "rating": 4.3,
    "city": "Antequera",
    "address": ""
  },
  {
    "name": "Restaurante Refectorio",
    "topic": "Mediterranean, Spanish",
    "rating": 4.3,
    "city": "Antequera",
    "address": ""
  },
  {
    "name": "I Romani Pizza",
    "topic": "Italian, Pizza",
    "rating": 4.5,
    "city": "Antequera",
    "address": ""
  },
  {
    "name": "Casa Paco",
    "topic": "Steakhouse, Mediterranean",
    "rating": 4.6,
    "city": "Antequera",
    "address": ""
  },
  {
    "name": "Bar Chicón",
    "topic": "Mediterranean, Spanish",
    "rating": 4.3,
    "city": "Antequera",
    "address": ""
  },
  {
    "name": "Venta El Conejo",
    "topic": "Spanish",
    "rating": 4.2,
    "city": "Antequera",
    "address": ""
  },
  {
    "name": "Restaurante Anfitrión",
    "topic": "Mediterranean, Spanish",
    "rating": 4.8,
    "city": "Antequera",
    "address": ""
  },
  {
    "name": "Finca Eslava",
    "topic": "Mediterranean, European",
    "rating": 4.0,
    "city": "Antequera",
    "address": "Finca Eslava, A-7281, Antequera, Málaga, Andalucía, 29200, España",
    "lat": 37.0334553,
    "lon": -4.5615584
  },
  {
    "name": "Bar Restaurante La Nave",
    "topic": "Mediterranean, Spanish",
    "rating": 5.0,
    "city": "Antequera",
    "address": ""
  },
  {
    "name": "Cervecería Bocatería Triana",
    "topic": "Mediterranean, Spanish",
    "rating": 4.4,
    "city": "Antequera",
    "address": ""
  },
  {
    "name": "Restaurante Bienmesabe",
    "topic": "Mediterranean, Spanish",
    "rating": 4.4,
    "city": "Antequera",
    "address": "Bienmesabe, Plaza del Escribano, Antequera, Málaga, Andalucía, 29200, España",
    "lat": 37.0150176,
    "lon": -4.5563172
  },
  {
    "name": "La Cantina",
    "topic": "Bar, Mediterranean",
    "rating": 4.3,
    "city": "Antequera",
    "address": "La Cantina, Alameda de Andalucía, Antequera, Málaga, Andalucía, 29200, España",
    "lat": 37.0210459,
    "lon": -4.5640564
  },
  {
    "name": "Parrilla San Bartolome",
    "topic": "Steakhouse, Cajun & Creole",
    "rating": 4.6,
    "city": "Antequera",
    "address": ""
  },
  {
    "name": "Saborio Del Hacebuche",
    "topic": "16",
    "rating": 4.4,
    "city": "Antequera",
    "address": ""
  },
  {
    "name": "Casa Caro",
    "topic": "Bars & Pubs, Bar",
    "rating": 4.3,
    "city": "Antequera",
    "address": ""
  },
  {
    "name": "Restaurante Terra",
    "topic": "Mediterranean, Barbecue",
    "rating": 4.8,
    "city": "Antequera",
    "address": ""
  },
  {
    "name": "Casa Pepe Fox",
    "topic": "Bars & Pubs, Spanish",
    "rating": 4.0,
    "city": "Antequera",
    "address": ""
  },
  {
    "name": "Restaurante Fuente del Sol",
    "topic": "Mediterranean, Spanish",
    "rating": 4.1,
    "city": "Antequera",
    "address": ""
  },
  {
    "name": "Restaurante El Rincon Del Hortelano",
    "topic": "miLa JoyaMediterranean, Spanish",
    "rating": 4.0,
    "city": "Antequera",
    "address": ""
  },
  {
    "name": "Gastrobar Casa Lucía",
    "topic": "Mediterranean, Spanish",
    "rating": 4.1,
    "city": "Antequera",
    "address": ""
  },
  {
    "name": "Bar Ladron",
    "topic": "Mediterranean, Spanish",
    "rating": 4.0,
    "city": "Antequera",
    "address": ""
  },
  {
    "name": "La Fabrica. El restaurante de la Escuela",
    "topic": "Spanish, Fusion",
    "rating": 4.8,
    "city": "Antequera",
    "address": ""
  },
  {
    "name": "Cafeteria Bar, Toral",
    "topic": "Spanish",
    "rating": 4.2,
    "city": "Antequera",
    "address": ""
  },
  {
    "name": "La Bohème Restaurant",
    "topic": "Chinese, Japanese",
    "rating": 4.6,
    "city": "Antequera",
    "address": ""
  },
  {
    "name": "Contradiccion",
    "topic": "American, Fast Food",
    "rating": 5.0,
    "city": "Antequera",
    "address": ""
  },
  {
    "name": "Restaurante Entre Olivos",
    "topic": "Seafood, Mediterranean",
    "rating": 5.0,
    "city": "Antequera",
    "address": ""
  },
  {
    "name": "Bar Asador El Patio",
    "topic": "Steakhouse, Mediterranean",
    "rating": 5.0,
    "city": "Antequera",
    "address": ""
  },
  {
    "name": "Meson Momotombo",
    "topic": "Spanish",
    "rating": 4.4,
    "city": "Antequera",
    "address": ""
  },
  {
    "name": "Restaurante Efebo",
    "topic": "Spanish",
    "rating": 4.3,
    "city": "Antequera",
    "address": ""
  },
  {
    "name": "Sushi Ki",
    "topic": "Spanish",
    "rating": 5.0,
    "city": "Antequera",
    "address": ""
  },
  {
    "name": "Parque Verónica",
    "topic": "Steakhouse, Seafood",
    "rating": 5.0,
    "city": "Antequera",
    "address": ""
  },
  {
    "name": "Asador de Pollos Samuel",
    "topic": "Trato nefasto",
    "rating": 4.2,
    "city": "Antequera",
    "address": ""
  },
  {
    "name": "Bodegas Mezquita Cruz Del Rastro",
    "topic": "Mediterranean, Spanish",
    "rating": 4.8,
    "city": "Córdoba",
    "address": "Bodegas Mezquita, 2, Plaza Cruz del Rastro, San Pedro, Campo de la Verdad - Miraflores, Santiago, Córdoba, Andalucía, 14002, España",
    "lat": 37.8799524,
    "lon": -4.7755551
  },
  {
    "name": "Sibuya Urban Sushi Bar Córdoba",
    "topic": "Japanese, Sushi",
    "rating": 4.9,
    "city": "Córdoba",
    "address": "Sibuya Urban Sushi Bar, 37, Avenida del Gran Capitán, Campo de la Merced - Molinos Alta, Santiago, Córdoba, Andalucía, 14008, España",
    "lat": 37.8900469,
    "lon": -4.7831145
  },
  {
    "name": "Bodegas Mezquita Corregidor",
    "topic": "Mediterranean, Spanish",
    "rating": 4.6,
    "city": "Córdoba",
    "address": ""
  },
  {
    "name": "Restaurante Bambú",
    "topic": "Japanese, Sushi",
    "rating": 4.9,
    "city": "Córdoba",
    "address": "Bambu, Carril bici Av. Aeropuerto, Ciudad Jardín, Distrito Poniente Sur, Córdoba, Andalucía, 14004, España",
    "lat": 37.8793055,
    "lon": -4.7883127
  },
  {
    "name": "Bodegas Mezquita Céspedes",
    "topic": "Mediterranean, Spanish",
    "rating": 4.6,
    "city": "Córdoba",
    "address": "Bodegas Mezquita, 12, Calle Céspedes, San Pedro, El Salvador y La Compañía, Santiago, Córdoba, Andalucía, 14003, España",
    "lat": 37.8799836,
    "lon": -4.7800481
  },
  {
    "name": "Taberna La Viuda",
    "topic": "Mediterranean, European",
    "rating": 4.5,
    "city": "Córdoba",
    "address": "Taberna La Viuda, 52, Calle San Basilio, Vista Alegre, San Basilio, Santiago, Córdoba, Andalucía, 14004, España",
    "lat": 37.8754894,
    "lon": -4.7852337
  },
  {
    "name": "Restaurante Damasco",
    "topic": "Lebanese, Mediterranean",
    "rating": 4.8,
    "city": "Córdoba",
    "address": ""
  },
  {
    "name": "Cielito Lindo Café",
    "topic": "Mexican, Healthy",
    "rating": 4.7,
    "city": "Córdoba",
    "address": "Cielito Lindo Café, 5, Calle Ronda de La Manca, Barrio Fuensanta, Santiago, Córdoba, Andalucía, 14010, España",
    "lat": 37.8867962,
    "lon": -4.765226
  },
  {
    "name": "Taberna Casa Pedro Ximénez",
    "topic": "Mediterranean, European",
    "rating": 4.8,
    "city": "Córdoba",
    "address": ""
  },
  {
    "name": "Onakasita",
    "topic": "Japanese, Sushi",
    "rating": 4.7,
    "city": "Córdoba",
    "address": "Onakasita, Calle José María Martorell, Vista Alegre, Poniente, Distrito Poniente Sur, Córdoba, Andalucía, 14005, España",
    "lat": 37.8802488,
    "lon": -4.7983376
  },
  {
    "name": "El Envero",
    "topic": "Mediterranean, European",
    "rating": 4.6,
    "city": "Córdoba",
    "address": "El Envero, 21, Calle Teruel, Camping, Distrito Norte Sierra, Córdoba, Andalucía, 14011, España",
    "lat": 37.8984659,
    "lon": -4.7885567
  },
  {
    "name": "Bodegas Mezquita Ribera",
    "topic": "Mediterranean, Spanish",
    "rating": 4.8,
    "city": "Córdoba",
    "address": ""
  },
  {
    "name": "Restaurante Puerta Sevilla",
    "topic": "Mediterranean, European",
    "rating": 4.5,
    "city": "Córdoba",
    "address": "Taberna Restaurante Puerta Sevilla, 51, Calle Postrera, Vista Alegre, San Basilio, Santiago, Córdoba, Andalucía, 14004, España",
    "lat": 37.8752566,
    "lon": -4.7857865
  },
  {
    "name": "Bocaito Andalusi Halal",
    "topic": "Moroccan, Middle Eastern",
    "rating": 4.7,
    "city": "Córdoba",
    "address": ""
  },
  {
    "name": "Paseo Iberico",
    "topic": "Bar, Mediterranean",
    "rating": 4.7,
    "city": "Córdoba",
    "address": "Paseo Ibérico, Calle Lucano, San Pedro, Campo de la Verdad - Miraflores, Santiago, Córdoba, Andalucía, 14002, España",
    "lat": 37.8801305,
    "lon": -4.7753911
  },
  {
    "name": "Pasillo Oriental",
    "topic": "Mediterranean, Middle Eastern",
    "rating": 4.8,
    "city": "Córdoba",
    "address": "Pasillo Oriental, Calle Velázquez Bosco, San Pedro, El Salvador y La Compañía, Santiago, Córdoba, Andalucía, 14003, España",
    "lat": 37.880514,
    "lon": -4.7799444
  },
  {
    "name": "ReComiendo",
    "topic": "Mediterranean, European",
    "rating": 4.7,
    "city": "Córdoba",
    "address": "ReComiendo, 5, Calle Alcalá Zamora, Urbanización Las Brisas, Valdeolleros, Distrito Norte Sierra, Córdoba, Andalucía, 14006, España",
    "lat": 37.9083408,
    "lon": -4.7762494
  },
  {
    "name": "Taberna La Cuarta",
    "topic": "Mediterranean, European",
    "rating": 4.6,
    "city": "Córdoba",
    "address": "Taberna La Cuarta, Calle Capitulares, San Salvador y La Compañía, Santiago, Córdoba, Andalucía, 14002, España",
    "lat": 37.8849588,
    "lon": -4.7758335
  },
  {
    "name": "Regadera",
    "topic": "Mediterranean, European",
    "rating": 4.6,
    "city": "Córdoba",
    "address": "La Regadera, 10, Ronda de Isasa, San Pedro, Campo de la Verdad - Miraflores, Santiago, Córdoba, Andalucía, 14003, España",
    "lat": 37.8786045,
    "lon": -4.7774464
  },
  {
    "name": "The Club",
    "topic": "American, Bar",
    "rating": 4.7,
    "city": "Córdoba",
    "address": "The Club, Calle de Luis Braille, Fray Albino, Distrito Sur, Córdoba, Andalucía, 14009, España",
    "lat": 37.8732795,
    "lon": -4.7785069
  },
  {
    "name": "LaMundi",
    "topic": "International, Mediterranean",
    "rating": 4.7,
    "city": "Córdoba",
    "address": "Lamundi, Avenida del Gran Capitán, Campo de la Merced - Molinos Alta, Santiago, Córdoba, Andalucía, 14008, España",
    "lat": 37.8899228,
    "lon": -4.7831
  },
  {
    "name": "Restaurante",
    "topic": "Mediterranean, European",
    "rating": 4.6,
    "city": "Córdoba",
    "address": "Aparcamiento del Restaurante Cuevas Romanas, Calle Las Cuevas, Peñatejada, Córdoba, Andalucía, 14005, España",
    "lat": 37.9216985,
    "lon": -4.7522086
  },
  {
    "name": "Taberna El Abanico Ribera",
    "topic": "Mediterranean, Spanish",
    "rating": 4.7,
    "city": "Córdoba",
    "address": ""
  },
  {
    "name": "La Perla Azul Cafetería - Tetería - Restaurante",
    "topic": "Moroccan, Cafe",
    "rating": 4.9,
    "city": "Córdoba",
    "address": ""
  },
  {
    "name": "Vaquena Burger",
    "topic": "American",
    "rating": 4.7,
    "city": "Córdoba",
    "address": "Vaquena Burger, Calle de la Virgen del Perpetuo Socorro, Ciudad Jardín, Distrito Poniente Sur, Córdoba, Andalucía, 14004, España",
    "lat": 37.8813267,
    "lon": -4.7877647
  },
  {
    "name": "Tu Pescaíto",
    "topic": "Mediterranean, European",
    "rating": 4.7,
    "city": "Córdoba",
    "address": "Tu Pescaito, Plaza de la Corredera, San Pedro, Plaza de la Corredera, Santiago, Córdoba, Andalucía, 14002, España",
    "lat": 37.8835109,
    "lon": -4.7751387
  },
  {
    "name": "Restaurante Ermita de La Candelaria",
    "topic": "Mediterranean, Spanish",
    "rating": 4.7,
    "city": "Córdoba",
    "address": "Ermita de la Calendaria, 2, Calle Candelaria, San Pedro, Cerro de la Golondrina - Salesianos, Santiago, Córdoba, Andalucía, 14002, España",
    "lat": 37.8821932,
    "lon": -4.773855
  },
  {
    "name": "Restaurante Sant'angelo",
    "topic": "Italian, Pizza",
    "rating": 4.9,
    "city": "Córdoba",
    "address": ""
  },
  {
    "name": "Restaurante Umaueyon",
    "topic": "Lebanese, Moroccan",
    "rating": 4.7,
    "city": "Córdoba",
    "address": ""
  },
  {
    "name": "Taberna El Abanico",
    "topic": "Bar, Mediterranean",
    "rating": 4.4,
    "city": "Córdoba",
    "address": "Taberna El Abanico, Calle Velázquez Bosco, San Pedro, El Salvador y La Compañía, Santiago, Córdoba, Andalucía, 14003, España",
    "lat": 37.8803042,
    "lon": -4.7797281
  },
  {
    "name": "Noor Restaurant",
    "topic": "Mediterranean, Spanish",
    "rating": 4.7,
    "city": "Córdoba",
    "address": "Noor, Calle de Pablo Ruiz Picasso, Fidiana, Distrito Sureste, Córdoba, Andalucía, 14007, España",
    "lat": 37.8897912,
    "lon": -4.7584891
  },
  {
    "name": "Restaurante El Rincon de Carmen",
    "topic": "Mediterranean, Spanish",
    "rating": 4.5,
    "city": "Córdoba",
    "address": "Restaurante El Rincón de Carmen, 4, Calle Romero, Vista Alegre, La Trinidad, Santiago, Córdoba, Andalucía, 14003, España",
    "lat": 37.8798994,
    "lon": -4.7814016
  },
  {
    "name": "Patio Romano",
    "topic": "Italian, Mediterranean",
    "rating": 4.5,
    "city": "Córdoba",
    "address": "Patio Romano, 11, Calle de los Deanes, San Pedro, El Salvador y La Compañía, Santiago, Córdoba, Andalucía, 14003, España",
    "lat": 37.8797611,
    "lon": -4.7811036
  },
  {
    "name": "La Posada Del Caballo Andaluz",
    "topic": "Mediterranean, Spanish",
    "rating": 4.5,
    "city": "Córdoba",
    "address": ""
  },
  {
    "name": "Taberna San Cristobal",
    "topic": "Mediterranean, Spanish",
    "rating": 4.6,
    "city": "Córdoba",
    "address": ""
  },
  {
    "name": "La Taberna de Almodovar",
    "topic": "Mediterranean, Spanish",
    "rating": 4.5,
    "city": "Córdoba",
    "address": "La Taberna de Almodóvar, Calle Benito Pérez Galdós, Campo de la Merced - Molinos Alta, Santiago, Córdoba, Andalucía, 14008, España",
    "lat": 37.8898768,
    "lon": -4.7823501
  },
  {
    "name": "Amaltea",
    "topic": "Mediterranean, European",
    "rating": 4.4,
    "city": "Córdoba",
    "address": "Amaltea, 10, Ronda de Isasa, San Pedro, Campo de la Verdad - Miraflores, Santiago, Córdoba, Andalucía, 14003, España",
    "lat": 37.8787122,
    "lon": -4.777275
  },
  {
    "name": "Con Acento Parrilla Resto Bar",
    "topic": "Steakhouse, Mediterranean",
    "rating": 4.6,
    "city": "Córdoba",
    "address": ""
  },
  {
    "name": "Taberna Los Berengueles",
    "topic": "Mediterranean, European",
    "rating": 4.5,
    "city": "Córdoba",
    "address": "Taberna los Berengueles, Calle del Conde Torres Cabrera, San Miguel - Capuchinos, Santiago, Córdoba, Andalucía, 14001, España",
    "lat": 37.8864666,
    "lon": -4.778852
  },
  {
    "name": "Restaurante Qurtubah",
    "topic": "Moroccan, Mediterranean",
    "rating": 4.5,
    "city": "Córdoba",
    "address": "Casa Qurtubah, 8, Calle Céspedes, San Pedro, El Salvador y La Compañía, Santiago, Córdoba, Andalucía, 14003, España",
    "lat": 37.8802657,
    "lon": -4.7801941
  },
  {
    "name": "Patio De La Judería",
    "topic": "Mediterranean, European",
    "rating": 4.2,
    "city": "Córdoba",
    "address": "Patio de la Judería, 6, Calle Conde y Luque, San Pedro, El Salvador y La Compañía, Santiago, Córdoba, Andalucía, 14003, España",
    "lat": 37.8806581,
    "lon": -4.7806368
  },
  {
    "name": "Terra Olea",
    "topic": "Mediterranean, European",
    "rating": 4.8,
    "city": "Córdoba",
    "address": ""
  },
  {
    "name": "Choco Restaurant",
    "topic": "Mediterranean, European",
    "rating": 4.5,
    "city": "Córdoba",
    "address": "Choco, 14, Calle del Compositor Serrano Lucena, Barrio Fuensanta, Distrito Sureste, Córdoba, Andalucía, 14010, España",
    "lat": 37.8851847,
    "lon": -4.7623794
  },
  {
    "name": "Taberna El Abanico Patio",
    "topic": "Mediterranean, Spanish",
    "rating": 4.7,
    "city": "Córdoba",
    "address": ""
  },
  {
    "name": "Restaurante Montevideo Steak House",
    "topic": "Steakhouse",
    "rating": 4.5,
    "city": "Córdoba",
    "address": ""
  },
  {
    "name": "Taberna Gongora",
    "topic": "Spanish",
    "rating": 4.4,
    "city": "Córdoba",
    "address": "Taberna Góngora, 4, Calle del Conde Torres Cabrera, San Miguel - Capuchinos, Santiago, Córdoba, Andalucía, 14001, España",
    "lat": 37.8863576,
    "lon": -4.7787781
  },
  {
    "name": "Taberna Salinas",
    "topic": "Mediterranean, Spanish",
    "rating": 4.3,
    "city": "Córdoba",
    "address": "Taberna Salinas, Calle Tundidores, San Pedro, San Andrés - San Pablo, Santiago, Córdoba, Andalucía, 14002, España",
    "lat": 37.8841275,
    "lon": -4.7757482
  },
  {
    "name": "Taberna La Montillana",
    "topic": "Mediterranean, Spanish",
    "rating": 4.4,
    "city": "Córdoba",
    "address": "Taberna La Montillana, 5, Calle San Álvaro, Centro Comercial, Santiago, Córdoba, Andalucía, 14003, España",
    "lat": 37.8857332,
    "lon": -4.779818
  },
  {
    "name": "La Tinaja",
    "topic": "Mediterranean, European",
    "rating": 4.4,
    "city": "Córdoba",
    "address": "La Tinaja, 12, Paseo Ribera, San Pedro, Campo de la Verdad - Miraflores, Santiago, Córdoba, Andalucía, 14002, España",
    "lat": 37.8806164,
    "lon": -4.7737297
  },
  {
    "name": "Restaurante Sociedad Plateros Maria Auxiliadora‎",
    "topic": "Mediterranean, Spanish",
    "rating": 4.3,
    "city": "Córdoba",
    "address": "Sociedad de Plateros María Auxiliadora, Calle María Auxiliadora, San Lorenzo, Santiago, Córdoba, Andalucía, 14007, España",
    "lat": 37.88958,
    "lon": -4.7669608
  },
  {
    "name": "Casa Rubio",
    "topic": "Mediterranean, Spanish",
    "rating": 4.4,
    "city": "Córdoba",
    "address": "Casa Rubio, 5, Calle Puerta de Almodóvar, Vista Alegre, La Trinidad, Santiago, Córdoba, Andalucía, 14003, España",
    "lat": 37.8807125,
    "lon": -4.7838236
  },
  {
    "name": "Doble de Cepa",
    "topic": "Mediterranean, European",
    "rating": 4.3,
    "city": "Córdoba",
    "address": "Calle de Doble de Cepa, Fray Albino, Distrito Sur, Córdoba, Andalucía, 14009, España",
    "lat": 37.8699234,
    "lon": -4.7733672
  },
  {
    "name": "Restaurante Almudaina",
    "topic": "Mediterranean, Spanish",
    "rating": 4.2,
    "city": "Córdoba",
    "address": "Restaurante Almudaina, 1, Calle Tomás Conde, Huerta del Rey - Vallellano, Santiago, Córdoba, Andalucía, 14004, España",
    "lat": 37.8780589,
    "lon": -4.7819062
  },
  {
    "name": "La Fragua",
    "topic": "Mediterranean, Spanish",
    "rating": 4.3,
    "city": "Córdoba",
    "address": "La Fragua, Calleja del Salmorejo Cordobés, San Pedro, Huerta del Rey - Vallellano, Santiago, Córdoba, Andalucía, 14003, España",
    "lat": 37.8782884,
    "lon": -4.7816637
  },
  {
    "name": "El Choto Restaurante",
    "topic": "Steakhouse, Mediterranean",
    "rating": 4.4,
    "city": "Córdoba",
    "address": "Restaurante El Choto, Calle Almanzor, Vista Alegre, La Trinidad, Santiago, Córdoba, Andalucía, 14003, España",
    "lat": 37.8805072,
    "lon": -4.7827051
  },
  {
    "name": "Casa Pepe De La Juderia",
    "topic": "Mediterranean, Spanish",
    "rating": 4.3,
    "city": "Córdoba",
    "address": "Casa Pepe de la Judería, Calle Romero, Vista Alegre, La Trinidad, Santiago, Córdoba, Andalucía, 14003, España",
    "lat": 37.8798604,
    "lon": -4.7815207
  },
  {
    "name": "Mesón San Basilio",
    "topic": "Mediterranean, European",
    "rating": 4.3,
    "city": "Córdoba",
    "address": "Mesón San Basilio, Calle San Basilio, Vista Alegre, San Basilio, Santiago, Córdoba, Andalucía, 14004, España",
    "lat": 37.876517,
    "lon": -4.783808
  },
  {
    "name": "La Tranquera Restaurante",
    "topic": "Steakhouse, Latin",
    "rating": 4.4,
    "city": "Córdoba",
    "address": "La Tranquera, Plaza de la Alhóndiga, San Pedro, El Salvador y La Compañía, Santiago, Córdoba, Andalucía, 14003, España",
    "lat": 37.8791555,
    "lon": -4.7774307
  },
  {
    "name": "Casa Mazal - Restaurante Sefardí",
    "topic": "Mediterranean, Spanish",
    "rating": 4.3,
    "city": "Córdoba",
    "address": ""
  },
  {
    "name": "Restaurante El Churrasco",
    "topic": "Spanish",
    "rating": 4.2,
    "city": "Córdoba",
    "address": "El Churrasco, Calle Romero, Vista Alegre, La Trinidad, Santiago, Córdoba, Andalucía, 14003, España",
    "lat": 37.8800938,
    "lon": -4.7819054
  },
  {
    "name": "La Furgo",
    "topic": "Mediterranean, European",
    "rating": 4.4,
    "city": "Córdoba",
    "address": "La Furgo, 7, Ronda de Isasa, San Pedro, Campo de la Verdad - Miraflores, Santiago, Córdoba, Andalucía, 14003, España",
    "lat": 37.8790506,
    "lon": -4.7766788
  },
  {
    "name": "La Cuchara de San Lorenzo",
    "topic": "Mediterranean, European",
    "rating": 4.4,
    "city": "Córdoba",
    "address": "La Cuchara, Calle Arroyo de San Lorenzo, San Pedro, San Lorenzo, Santiago, Córdoba, Andalucía, 14002, España",
    "lat": 37.8878352,
    "lon": -4.7693287
  },
  {
    "name": "Restaurante La Boca",
    "topic": "Mediterranean, European",
    "rating": 4.3,
    "city": "Córdoba",
    "address": "La Boca, 39, Calle San Fernando, San Salvador y La Compañía, Santiago, Córdoba, Andalucía, 14003, España",
    "lat": 37.8822998,
    "lon": -4.7763714
  },
  {
    "name": "El Patio Andaluz",
    "topic": "Mediterranean, European",
    "rating": 4.3,
    "city": "Córdoba",
    "address": "Taberna El Patio Andaluz, Calle Velázquez Bosco, San Pedro, El Salvador y La Compañía, Santiago, Córdoba, Andalucía, 14003, España",
    "lat": 37.8805747,
    "lon": -4.7799872
  },
  {
    "name": "La Siesta",
    "topic": "Mediterranean, Spanish",
    "rating": 4.2,
    "city": "Córdoba",
    "address": "La Siesta, Calle Enrique Romero de Torres, San Pedro, Campo de la Verdad - Miraflores, Santiago, Córdoba, Andalucía, 14002, España",
    "lat": 37.8805336,
    "lon": -4.7745609
  },
  {
    "name": "Massamore",
    "topic": "Italian, Pizza",
    "rating": 5.0,
    "city": "Córdoba",
    "address": ""
  },
  {
    "name": "Taberna Rincon De Las Beatillas",
    "topic": "Mediterranean, Spanish",
    "rating": 4.3,
    "city": "Córdoba",
    "address": ""
  },
  {
    "name": "Panzamorena",
    "topic": "Italian, Mediterranean",
    "rating": 4.9,
    "city": "Córdoba",
    "address": "Panzamorena, Calle Rodríguez Marín, San Pedro, San Andrés - San Pablo, Santiago, Córdoba, Andalucía, 14002, España",
    "lat": 37.8844671,
    "lon": -4.775558
  },
  {
    "name": "Taberna Casa Pepe Salinas",
    "topic": "Mediterranean, Spanish",
    "rating": 4.8,
    "city": "Córdoba",
    "address": ""
  },
  {
    "name": "Taberna El Capricho",
    "topic": "Mediterranean, European",
    "rating": 4.2,
    "city": "Córdoba",
    "address": "Taberna El Capricho, Calle Velázquez Bosco, San Pedro, El Salvador y La Compañía, Santiago, Córdoba, Andalucía, 14003, España",
    "lat": 37.880483,
    "lon": -4.7799174
  },
  {
    "name": "La Taberna del Río",
    "topic": "Mediterranean, European",
    "rating": 4.2,
    "city": "Córdoba",
    "address": "La Muralla, Calle Virgen del Rosario, Palma del Río, Córdoba, Andalucía, 14700, España",
    "lat": 37.7019425,
    "lon": -5.2840529
  },
  {
    "name": "Taberna La Alqueria",
    "topic": "Mediterranean, European",
    "rating": 4.3,
    "city": "Córdoba",
    "address": "Taberna La Alquería, Calle Enrique Romero de Torres, San Pedro, Campo de la Verdad - Miraflores, Santiago, Córdoba, Andalucía, 14002, España",
    "lat": 37.8806638,
    "lon": -4.7744182
  },
  {
    "name": "Campos de Toro",
    "topic": "Mediterranean, European",
    "rating": 4.4,
    "city": "Córdoba",
    "address": "Campos de Toro, 73, Calle del Corregidor Luis de la Cerda, San Pedro, El Salvador y La Compañía, Santiago, Córdoba, Andalucía, 14003, España",
    "lat": 37.8785679,
    "lon": -4.7783057
  },
  {
    "name": "De Cobre Y Picón",
    "topic": "Steakhouse, Mediterranean",
    "rating": 4.9,
    "city": "Córdoba",
    "address": ""
  },
  {
    "name": "Horma",
    "topic": "Bar, Mediterranean",
    "rating": 4.7,
    "city": "Córdoba",
    "address": "Horma, 3, Calle Albucasis, Vista Alegre, Huerta del Rey - Vallellano, Santiago, Córdoba, Andalucía, 14003, España",
    "lat": 37.878973,
    "lon": -4.7820382
  },
  {
    "name": "Macsura Gastrotaberna",
    "topic": "Mediterranean, European",
    "rating": 4.3,
    "city": "Córdoba",
    "address": ""
  },
  {
    "name": "Horno San Luis",
    "topic": "Mediterranean, European",
    "rating": 4.1,
    "city": "Córdoba",
    "address": ""
  },
  {
    "name": "La Fabbrica Pizzeria",
    "topic": "Italian, Pizza",
    "rating": 4.3,
    "city": "Córdoba",
    "address": ""
  },
  {
    "name": "Si Quiero",
    "topic": "Italian, Pizza",
    "rating": 4.5,
    "city": "Córdoba",
    "address": "Sí, quiero, Go!, 10, Avenida Arroyo del Moro, Las Margaritas, Distrito Noroeste, Córdoba, Andalucía, 14011, España",
    "lat": 37.8877008,
    "lon": -4.7962197
  },
  {
    "name": "Barra y Mesa",
    "topic": "Mediterranean, Spanish",
    "rating": 4.7,
    "city": "Córdoba",
    "address": ""
  },
  {
    "name": "Bodegas Campos",
    "topic": "Mediterranean, Spanish",
    "rating": 4.1,
    "city": "Córdoba",
    "address": "Bodegas Campos, Calle Lineros, San Pedro, Cerro de la Golondrina - Salesianos, Santiago, Córdoba, Andalucía, 14002, España",
    "lat": 37.8815188,
    "lon": -4.7735678
  },
  {
    "name": "Canadian Bar and Tapas",
    "topic": "Bar, Mediterranean",
    "rating": 4.3,
    "city": "Córdoba",
    "address": ""
  },
  {
    "name": "Elminibar",
    "topic": "American, Mediterranean",
    "rating": 4.7,
    "city": "Córdoba",
    "address": ""
  },
  {
    "name": "restaurante tablao el jaleo",
    "topic": "Spanish",
    "rating": 4.7,
    "city": "Córdoba",
    "address": ""
  },
  {
    "name": "Taberna El Poema",
    "topic": "Bar, Mediterranean",
    "rating": 4.1,
    "city": "Córdoba",
    "address": "Taberna El Poema, 2, Calle Alonso de Burgos, Centro Comercial, Santiago, Córdoba, Andalucía, 14008, España",
    "lat": 37.8859614,
    "lon": -4.7838093
  },
  {
    "name": "La Cazuela de la Esparteria",
    "topic": "Spanish",
    "rating": 4.0,
    "city": "Córdoba",
    "address": ""
  },
  {
    "name": "La Caravana - Cocina Viajera",
    "topic": "Latin, International",
    "rating": 4.9,
    "address": "Calle José Denis Belgrano 25, 29008 Málaga, Spain",
    "city": "Málaga"
  },
  {
    "name": "Caos",
    "topic": "Latin, Spanish",
    "rating": 4.9,
    "address": "Calle Gómez Pallete 5, Local 12, 29013 Málaga, Spain",
    "city": "Málaga"
  },
  {
    "name": "Budare Venezuelan Food",
    "topic": "Latin, Healthy",
    "rating": 4.9,
    "address": "Calle Beatas 40, 29008 Málaga, Spain",
    "city": "Málaga"
  },
  {
    "name": "Trattoria Mamma Franca",
    "topic": "Italian, Pizza",
    "rating": 4.8,
    "address": "Avenida Imperio Argentina 7, Locales 9-10, 29004 Málaga, Spain",
    "city": "Málaga"
  },
  {
    "name": "Alegría Flamenco Y Gastronomía",
    "topic": "Mediterranean, Spanish",
    "rating": 4.9,
    "address": "Calle Vélez Málaga 6, 29016 Málaga, Spain",
    "city": "Málaga"
  },
  {
    "name": "Anyway Wine Bar",
    "topic": "Mediterranean, European",
    "rating": 4.8,
    "address": "Paseo de la Farola 8, 29016 Málaga, Spain",
    "city": "Málaga"
  },
  {
    "name": "La Ristobottega",
    "topic": "Italian, Pizza",
    "rating": 4.9,
    "address": "Calle Cañón 3, 29015 Málaga, Spain",
    "city": "Málaga"
  },
  {
    "name": "Arrebato Gastrotaberna",
    "topic": "Spanish, Fusion",
    "rating": 4.9,
    "address": "Calle San Juan de Letrán 17, 29012 Málaga, Spain",
    "city": "Málaga"
  },
  {
    "name": "Andino Huelin",
    "topic": "Mexican, Peruvian",
    "rating": 4.9,
    "address": "Calle Tomás Echeverría 5, 29002 Málaga, Spain",
    "city": "Málaga"
  },
  {
    "name": "Amigos Plaza Mayor",
    "topic": "Mexican, Indian",
    "rating": 4.8,
    "address": "Calle Alfonso Ponce de León 3, 29140 Málaga, Spain",
    "city": "Málaga"
  },
  {
    "name": "El Encuentro",
    "topic": "Bar, Mediterranean",
    "rating": 4.8,
    "address": "Calle Ayala 43, 29002 Málaga, Spain",
    "city": "Málaga"
  },
  {
    "name": "Mezcal Gastrobar Mexicano",
    "topic": "Mexican, Latin",
    "rating": 4.9,
    "address": "Calle Moreno Monroy 7, 29015 Málaga, Spain",
    "city": "Málaga"
  },
  {
    "name": "Casa Ovi",
    "topic": "Mediterranean, Spanish",
    "rating": 4.9,
    "address": "Avenida de Sor Teresa Prat 72, 29004 Málaga, Spain",
    "city": "Málaga"
  },
  {
    "name": "Buenavista Gastrobar & Tapas",
    "topic": "Mediterranean, European",
    "rating": 4.8,
    "address": "Calle Gaona 8, 29012 Málaga, Spain",
    "city": "Málaga"
  },
  {
    "name": "Tasca Láska Malagueta",
    "topic": "Mediterranean, European",
    "rating": 4.9,
    "address": "Calle Fernando Camino 15, 29016 Málaga, Spain",
    "city": "Málaga"
  },
  {
    "name": "Balcón de las Flores",
    "topic": "Mediterranean, Spanish",
    "rating": 4.8,
    "address": "Calle Martínez 12, 29005 Málaga, Spain",
    "city": "Málaga"
  },
  {
    "name": "Restaurante Vino Mío",
    "topic": "International, Spanish",
    "rating": 4.5,
    "address": "Plaza de Jerónimo Cuervo 2, 29012 Málaga, Spain",
    "city": "Málaga"
  },
  {
    "name": "El Rincon de Lola",
    "topic": "Mediterranean, European",
    "rating": 4.8,
    "address": "Plaza Moreno Villa 9, 29002 Málaga, Spain",
    "city": "Málaga"
  },
  {
    "name": "Tercer Acto",
    "topic": "Mediterranean, Sushi",
    "rating": 4.8,
    "address": "Calle Córdoba 13, 29001 Málaga, Spain",
    "city": "Málaga"
  },
  {
    "name": "Spago's Pasta Fresca",
    "topic": "Italian, Fast Food",
    "rating": 4.9,
    "address": "Calle Calderería 11, 29008 Málaga, Spain",
    "city": "Málaga"
  },
  {
    "name": "Sibuya Urban Sushi Bar Málaga",
    "topic": "Japanese, Sushi",
    "rating": 4.8,
    "address": "Calle Granada 36, 29015 Málaga, Spain",
    "city": "Málaga"
  },
  {
    "name": "Restaurante Da Saveria",
    "topic": "Italian, Mediterranean",
    "rating": 4.7,
    "address": "Calle Ancha del Carmen 30, 29002 Málaga, Spain",
    "city": "Málaga"
  },
  {
    "name": "Comparte",
    "topic": "International, Mediterranean",
    "rating": 4.8,
    "address": "Calle Moreno Monroy 6, 29015 Málaga, Spain",
    "city": "Málaga"
  },
  {
    "name": "Andino Gastrobar",
    "topic": "American, Peruvian",
    "rating": 4.8,
    "address": "Calle Calderón de la Barca 3, 29005 Málaga, Spain",
    "city": "Málaga"
  },
  {
    "name": "Papá Piquillo",
    "topic": "Bar, Mediterranean",
    "rating": 4.8,
    "address": "Calle Cárcer 2, 29008 Málaga, Spain",
    "city": "Málaga"
  },
  {
    "name": "Blossom",
    "topic": "International, Contemporary",
    "rating": 4.8,
    "address": "Plaza de la Aduana s/n, 29015 Málaga, Spain",
    "city": "Málaga"
  },
  {
    "name": "El Lagar de Verum",
    "topic": "Seafood, Mediterranean",
    "rating": 4.8,
    "address": "Calle Olmos 43, 29018 Málaga, Spain",
    "city": "Málaga"
  },
  {
    "name": "El Gastronauta",
    "topic": "International, Mediterranean",
    "rating": 4.6,
    "address": "Calle Dos Aceras 20, 29012 Málaga, Spain",
    "city": "Málaga"
  },
  {
    "name": "La Barra De Doña Inés",
    "topic": "Mediterranean, Spanish",
    "rating": 4.7,
    "address": "Alameda Principal 15, 29001 Málaga, Spain",
    "city": "Málaga"
  },
  {
    "name": "Angus Muelle Uno",
    "topic": "Steakhouse",
    "rating": 4.5,
    "address": "Muelle Uno, Local 55, Paseo de la Farola, 29001 Málaga, Spain",
    "city": "Málaga"
  },
  {
    "name": "La Alacena de Francis",
    "topic": "Spanish, Russian",
    "rating": 4.8,
    "address": "Calle Montalbán 1, 29002 Málaga, Spain",
    "city": "Málaga"
  },
  {
    "name": "Saloniki",
    "topic": "Mediterranean, European",
    "rating": 4.3,
    "address": "Muelle Uno - Puerto de Málaga, Local 60, 29016 Málaga, Spain",
    "city": "Málaga"
  },
  {
    "name": "Ultramarinos Benjamín",
    "topic": "Mediterranean, Spanish",
    "rating": 4.8,
    "address": "",
    "city": "Málaga"
  },
  {
    "name": "Amigos Malaga Centro",
    "topic": "Mexican, Indian",
    "rating": 4.7,
    "address": "Amigos, 6, Calle Bolsa, Centro Histórico, Centro, Málaga, Málaga-Costa del Sol, Málaga, Andalucía, 29015, España",
    "city": "Málaga",
    "lat": 36.7193115,
    "lon": -4.4208004
  },
  {
    "name": "Taberna Taperia Los 13",
    "topic": "Mediterranean",
    "rating": 4.8,
    "address": "",
    "city": "Málaga"
  },
  {
    "name": "Tasca Láska",
    "topic": "International, Mediterranean",
    "rating": 4.7,
    "address": "Tasca Láska Bistrobar, 1, Avenida de la Aurora, El Perchel, Centro, Málaga, Málaga-Costa del Sol, Málaga, Andalucía, 29002, España",
    "city": "Málaga",
    "lat": 36.7156491,
    "lon": -4.4270261
  },
  {
    "name": "Gaucho Grill",
    "topic": "Steakhouse, Mediterranean",
    "rating": 4.3,
    "address": "Gaucho Grill, Paseo del Muelle Uno, Puerto de Málaga, Centro, Málaga, Málaga-Costa del Sol, Málaga, Andalucía, 29015, España",
    "city": "Málaga",
    "lat": 36.7150473,
    "lon": -4.4144956
  },
  {
    "name": "Verum - El Asador de Málaga",
    "topic": "Steakhouse, Mediterranean",
    "rating": 4.7,
    "address": "",
    "city": "Málaga"
  },
  {
    "name": "El Pikon",
    "topic": "International, Mediterranean",
    "rating": 4.7,
    "address": "El Pikón, 7, Plaza Lex Flavia Malacitana, El Ejido, Centro, Málaga, Málaga-Costa del Sol, Málaga, Andalucía, 29013, España",
    "city": "Málaga",
    "lat": 36.7299302,
    "lon": -4.4171747
  },
  {
    "name": "Tundra Fusión Burger",
    "topic": "American",
    "rating": 4.7,
    "address": "",
    "city": "Málaga"
  },
  {
    "name": "Kortxo",
    "topic": "International, Mediterranean",
    "rating": 4.7,
    "address": "Kortxo, 3, Calle Salinas, Centro Histórico, Centro, Málaga, Málaga-Costa del Sol, Málaga, Andalucía, 29015, España",
    "city": "Málaga",
    "lat": 36.720151,
    "lon": -4.4211935
  },
  {
    "name": "Doña Inés",
    "topic": "Grill, Fusion",
    "rating": 4.7,
    "address": "Calle Doña Inés, Los Calveles I y II, La Cala, Mijas, Costa del Sol Occidental, Málaga, Andalucía, 29648, España",
    "city": "Málaga",
    "lat": 36.5054345,
    "lon": -4.6735719
  },
  {
    "name": "Calanmor",
    "topic": "Bar, European",
    "rating": 4.9,
    "address": "",
    "city": "Málaga"
  },
  {
    "name": "Radici Osteria Italiana",
    "topic": "Italian, Mediterranean",
    "rating": 4.8,
    "address": "",
    "city": "Málaga"
  },
  {
    "name": "L'expérience",
    "topic": "Bar, Mediterranean",
    "rating": 4.5,
    "address": "L'experience, Calle Salinas, Centro Histórico, Centro, Málaga, Málaga-Costa del Sol, Málaga, Andalucía, 29015, España",
    "city": "Málaga",
    "lat": 36.7200218,
    "lon": -4.4205232
  },
  {
    "name": "La Barra de Zapata",
    "topic": "International, Mediterranean",
    "rating": 4.8,
    "address": "La Barra de Zapata, 10, Calle Salinas, Centro Histórico, Centro, Málaga, Málaga-Costa del Sol, Málaga, Andalucía, 29015, España",
    "city": "Málaga",
    "lat": 36.720179,
    "lon": -4.4208935
  },
  {
    "name": "Las Golondrinas",
    "topic": "Mediterranean, Spanish",
    "rating": 4.7,
    "address": "Las Golondrinas Vacation Holiday Home, 2, Carril Ermita de Verdiales, Palma-Palmilla, Málaga, Málaga-Costa del Sol, Málaga, Andalucía, 29014, España",
    "city": "Málaga",
    "lat": 36.798494,
    "lon": -4.4547161
  },
  {
    "name": "Luxalad Málaga Centro",
    "topic": "Cafe, International",
    "rating": 4.8,
    "address": "",
    "city": "Málaga"
  },
  {
    "name": "Pizzeria Italiana Vittoria",
    "topic": "Italian, Pizza",
    "rating": 4.7,
    "address": "",
    "city": "Málaga"
  },
  {
    "name": "Niña Bonita Cantina",
    "topic": "Mexican, Latin",
    "rating": 4.7,
    "address": "",
    "city": "Málaga"
  },
  {
    "name": "Amigos Grill Muelle Uno",
    "topic": "Mexican, Indian",
    "rating": 4.4,
    "address": "",
    "city": "Málaga"
  },
  {
    "name": "Oliva Tapas",
    "topic": "Bar, Mediterranean",
    "rating": 4.8,
    "address": "",
    "city": "Málaga"
  },
  {
    "name": "Andino Gastrobar La Paz",
    "topic": "Peruvian, Latin",
    "rating": 5.0,
    "address": "",
    "city": "Málaga"
  },
  {
    "name": "Gastrobar Bassoa",
    "topic": "Mediterranean, European",
    "rating": 4.8,
    "address": "",
    "city": "Málaga"
  },
  {
    "name": "Mura Mura Osteria",
    "topic": "Mediterranean, Contemporary",
    "rating": 4.7,
    "address": "",
    "city": "Málaga"
  },
  {
    "name": "Los Marangós Molina Lario",
    "topic": "European, Spanish",
    "rating": 4.6,
    "address": "Los Marangos Molina Lario, Calle Molina Lario, Centro Histórico, Centro, Málaga, Málaga-Costa del Sol, Málaga, Andalucía, 29015, España",
    "city": "Málaga",
    "lat": 36.7211565,
    "lon": -4.4202243
  },
  {
    "name": "TORO Muelle Uno",
    "topic": "Steakhouse, Mediterranean",
    "rating": 4.5,
    "address": "Toro, Paseo del Muelle Uno, Puerto de Málaga, Centro, Málaga, Málaga-Costa del Sol, Málaga, Andalucía, 29015, España",
    "city": "Málaga",
    "lat": 36.7148418,
    "lon": -4.4145779
  },
  {
    "name": "Santa Mónica Restaurant Sánchez Pastor",
    "topic": "Mediterranean, Spanish",
    "rating": 4.7,
    "address": "",
    "city": "Málaga"
  },
  {
    "name": "Atrezzo",
    "topic": "Italian, Pizza",
    "rating": 4.5,
    "address": "",
    "city": "Málaga"
  },
  {
    "name": "Terra Mia 2.0",
    "topic": "Italian, Pizza",
    "rating": 4.7,
    "address": "",
    "city": "Málaga"
  },
  {
    "name": "Osteria Angelino dal 1899 Malaga",
    "topic": "Italian, Mediterranean",
    "rating": 4.5,
    "address": "",
    "city": "Málaga"
  },
  {
    "name": "Amici Pizzería Gourmet",
    "topic": "Pizza",
    "rating": 4.7,
    "address": "",
    "city": "Málaga"
  },
  {
    "name": "La casa del perro",
    "topic": "Mediterranean, European",
    "rating": 4.5,
    "address": "La Casa del Perro, Calle Andrés Pérez, Centro Histórico, Centro, Málaga, Málaga-Costa del Sol, Málaga, Andalucía, 29008, España",
    "city": "Málaga",
    "lat": 36.7228683,
    "lon": -4.4229319
  },
  {
    "name": "Illari Vinos y Tapas",
    "topic": "Mediterranean, Spanish",
    "rating": 4.7,
    "address": "",
    "city": "Málaga"
  },
  {
    "name": "Mesón Alberto",
    "topic": "Spanish",
    "rating": 4.7,
    "address": "",
    "city": "Málaga"
  },
  {
    "name": "The Great India Halal",
    "topic": "Indian",
    "rating": 4.6,
    "address": "",
    "city": "Málaga"
  },
  {
    "name": "Cantarrana Restaurante",
    "topic": "Mediterranean, Spanish",
    "rating": 4.7,
    "address": "Restaurante Cantarrana, Avenida de Ronda, Almargen, Guadalteba, Málaga, Andalucía, 29330, España",
    "city": "Málaga",
    "lat": 36.998459,
    "lon": -5.0264977
  },
  {
    "name": "El Envero",
    "topic": "Seafood, Mediterranean",
    "rating": 4.6,
    "address": "El Envero, Calle Luis Barahona de Soto, Parque Mediterráneo, Carretera de Cádiz, Málaga, Málaga-Costa del Sol, Málaga, Andalucía, 29003, España",
    "city": "Málaga",
    "lat": 36.6949957,
    "lon": -4.4435397
  },
  {
    "name": "El Patio Del Ángel",
    "topic": "Mediterranean, Spanish",
    "rating": 4.6,
    "address": "El Patio del Ángel, 4, Calle Ángel, Centro Histórico, Centro, Málaga, Málaga-Costa del Sol, Málaga, Andalucía, 29008, España",
    "city": "Málaga",
    "lat": 36.7221152,
    "lon": -4.4211503
  },
  {
    "name": "Meson Mariano",
    "topic": "Mediterranean, Spanish",
    "rating": 4.5,
    "address": "",
    "city": "Málaga"
  },
  {
    "name": "La Antxoeta",
    "topic": "International, Mediterranean",
    "rating": 4.7,
    "address": "",
    "city": "Málaga"
  },
  {
    "name": "1981 Restaurant Gourmet",
    "topic": "Brew Pub, Cafe",
    "rating": 4.9,
    "address": "",
    "city": "Málaga"
  },
  {
    "name": "Santa Monica Restaurant Correo Viejo",
    "topic": "International, Mediterranean",
    "rating": 4.8,
    "address": "",
    "city": "Málaga"
  },
  {
    "name": "Terraza De Las Flores",
    "topic": "Mediterranean, Spanish",
    "rating": 4.7,
    "address": "",
    "city": "Málaga"
  },
  {
    "name": "Meson Iberico",
    "topic": "Mediterranean, European",
    "rating": 4.6,
    "address": "Mesón Ibérico, 27, Calle San Lorenzo, Ensanche Centro, Centro, Málaga, Málaga-Costa del Sol, Málaga, Andalucía, 29001, España",
    "city": "Málaga",
    "lat": 36.7146773,
    "lon": -4.4239115
  },
  {
    "name": "Aire Gastrobar",
    "topic": "Mediterranean, Spanish",
    "rating": 4.5,
    "address": "Aire Gastrobar y Restaurante, 16, Avenida de Príes, La Caleta, Centro, Málaga, Málaga-Costa del Sol, Málaga, Andalucía, 29016, España",
    "city": "Málaga",
    "lat": 36.7210213,
    "lon": -4.4064849
  },
  {
    "name": "Boca Llena Teatinos",
    "topic": "European, Spanish",
    "rating": 4.5,
    "address": "Boca Llena, 10, Avenida Parménides, El Cónsul, Teatinos-Universidad, Málaga, Málaga-Costa del Sol, Málaga, Andalucía, 29010, España",
    "city": "Málaga",
    "lat": 36.7221754,
    "lon": -4.4801382
  },
  {
    "name": "Matiz",
    "topic": "Mediterranean, European",
    "rating": 4.5,
    "address": "",
    "city": "Málaga"
  },
  {
    "name": "No Name Restaurante",
    "topic": "International, Mediterranean",
    "rating": 4.7,
    "address": "",
    "city": "Málaga"
  },
  {
    "name": "Madeinterranea",
    "topic": "Bar, Mediterranean",
    "rating": 4.4,
    "address": "Madeinterranea, Calle Granados, Centro Histórico, Centro, Málaga, Málaga-Costa del Sol, Málaga, Andalucía, 29015, España",
    "city": "Málaga",
    "lat": 36.7223693,
    "lon": -4.4201481
  },
  {
    "name": "Puerto Cristal Restaurante",
    "topic": "Seafood, International",
    "rating": 4.5,
    "address": "",
    "city": "Málaga"
  },
  {
    "name": "La Pérgola del Mediterráneo",
    "topic": "Mediterranean, European",
    "rating": 4.7,
    "address": "La Pérgola del Mediterráneo, Paseo Matías Prats, La Malagueta, Centro, Málaga, Málaga-Costa del Sol, Málaga, Andalucía, 29015, España",
    "city": "Málaga",
    "lat": 36.7140513,
    "lon": -4.4141199
  },
  {
    "name": "La Burguesita Malaga",
    "topic": "American, Fast Food",
    "rating": 4.5,
    "address": "",
    "city": "Málaga"
  },
  {
    "name": "Gloria Hoyos",
    "topic": "Bar, Mediterranean",
    "rating": 4.5,
    "address": "Gloria Hoyos, 89, Calle Carretería, La Goleta, Centro, Málaga, Málaga-Costa del Sol, Málaga, Andalucía, 29008, España",
    "city": "Málaga",
    "lat": 36.7241264,
    "lon": -4.4217963
  },
  {
    "name": "Chiringuito Nuevo Mediterráneo",
    "topic": "Seafood, Mediterranean",
    "rating": 4.5,
    "address": "",
    "city": "Málaga"
  },
  {
    "name": "El Mesón De Cervantes",
    "topic": "Mediterranean, European",
    "rating": 4.6,
    "address": "El Mesón de Cervantes, 11, Calle Álamos, La Merced, Centro, Málaga, Málaga-Costa del Sol, Málaga, Andalucía, 29012, España",
    "city": "Málaga",
    "lat": 36.7240319,
    "lon": -4.4198565
  },
  {
    "name": "Meet Vegano",
    "topic": "Japanese, European",
    "rating": 4.9,
    "address": "Meet Vegano, 6, Calle Marín García, Centro Histórico, Centro, Málaga, Málaga-Costa del Sol, Málaga, Andalucía, 29005, España",
    "city": "Málaga",
    "lat": 36.7192719,
    "lon": -4.4225766
  },
  {
    "name": "Candamil",
    "topic": "European, Spanish",
    "rating": 4.3,
    "address": "Candamil, 15, Calle Cuarteles, El Perchel, Centro, Málaga, Málaga-Costa del Sol, Málaga, Andalucía, 29002, España",
    "city": "Málaga",
    "lat": 36.7144723,
    "lon": -4.4272098
  },
  {
    "name": "Terra Mia",
    "topic": "Italian, Pizza",
    "rating": 4.5,
    "address": "Terra Mia, Calle Molina Lario, Centro Histórico, Centro, Málaga, Málaga-Costa del Sol, Málaga, Andalucía, 29015, España",
    "city": "Málaga",
    "lat": 36.7212108,
    "lon": -4.4200733
  },
  {
    "name": "Pez Lola Taberna Marinera",
    "topic": "Mediterranean, Spanish",
    "rating": 4.4,
    "address": "",
    "city": "Málaga"
  },
  {
    "name": "Restaurante Al-yamal",
    "topic": "Moroccan, Middle Eastern",
    "rating": 4.4,
    "address": "",
    "city": "Málaga"
  },
  {
    "name": "Marisqueria Jacinto",
    "topic": "Seafood, Mediterranean",
    "rating": 4.5,
    "address": "",
    "city": "Málaga"
  },
  {
    "name": "Beluga Málaga",
    "topic": "Mediterranean, European",
    "rating": 4.5,
    "address": "Beluga, 3, Plaza de Las Flores, Centro Histórico, Centro, Málaga, Málaga-Costa del Sol, Málaga, Andalucía, 29005, España",
    "city": "Málaga",
    "lat": 36.720385,
    "lon": -4.4219753
  },
  {
    "name": "Restaurante Miguel",
    "topic": "Mediterranean, European",
    "rating": 4.6,
    "address": "Restaurante Don Miguel, Calle Chambel, La Cala del Moral, Rincón de la Victoria, La Axarquía, Málaga, Andalucía, 29720, España",
    "city": "Málaga",
    "lat": 36.7166512,
    "lon": -4.3112177
  },
  {
    "name": "La Barra Inka",
    "topic": "Peruvian, Latin",
    "rating": 4.6,
    "address": "La Barra Inka By Henry Wong, 5, Plaza María Guerrero, Centro Histórico, Centro, Málaga, Málaga-Costa del Sol, Málaga, Andalucía, 29013, España",
    "city": "Málaga",
    "lat": 36.7226515,
    "lon": -4.4172537
  },
  {
    "name": "Araboka Casa de Vinos y Comidas",
    "topic": "Mediterranean, European",
    "rating": 4.5,
    "address": "",
    "city": "Málaga"
  },
  {
    "name": "Malvón Málaga Cisneros",
    "topic": "Argentinean",
    "rating": 4.8,
    "address": "Malvón, Calle Cisneros, Centro Histórico, Centro, Málaga, Málaga-Costa del Sol, Málaga, Andalucía, 29005, España",
    "city": "Málaga",
    "lat": 36.7207324,
    "lon": -4.4240123
  },
  {
    "name": "GastroBar GallarVi",
    "topic": "Mediterranean, European",
    "rating": 4.7,
    "address": "Gastrobar Gallarvi, Avenida Salvador Allende, Echeverría del Palo, Este, Málaga, Málaga-Costa del Sol, Málaga, Andalucía, 29017, España",
    "city": "Málaga",
    "lat": 36.7198598,
    "lon": -4.3626428
  },
  {
    "name": "La Tranca",
    "topic": "Bar, Mediterranean",
    "rating": 4.6,
    "address": "La Tranca, 92, Calle Carretería, Centro Histórico, Centro, Málaga, Málaga-Costa del Sol, Málaga, Andalucía, 29008, España",
    "city": "Málaga",
    "lat": 36.7241766,
    "lon": -4.421155
  },
  {
    "name": "SushiClub",
    "topic": "Japanese, Sushi",
    "rating": 4.6,
    "address": "",
    "city": "Málaga"
  },
  {
    "name": "La Peregrina Centro",
    "topic": "Seafood, Mediterranean",
    "rating": 4.4,
    "address": "La Peregrina Centro, 37, Calle Madre de Dios, La Merced, Centro, Málaga, Málaga-Costa del Sol, Málaga, Andalucía, 29012, España",
    "city": "Málaga",
    "lat": 36.7244609,
    "lon": -4.4193878
  },
  {
    "name": "Helas",
    "topic": "Mediterranean, European",
    "rating": 4.7,
    "address": "",
    "city": "Málaga"
  },
  {
    "name": "Picasso Bar Tapas",
    "topic": "International, Mediterranean",
    "rating": 4.4,
    "address": "Picasso Bar Tapas, 20, Plaza de la Merced, La Merced, Centro, Málaga, Málaga-Costa del Sol, Málaga, Andalucía, 29012, España",
    "city": "Málaga",
    "lat": 36.7235877,
    "lon": -4.4169704
  },
  {
    "name": "Brunchit - Museo",
    "topic": "Cafe, International",
    "rating": 4.9,
    "address": "",
    "city": "Málaga"
  },
  {
    "name": "Restaurante Amador",
    "topic": "Mediterranean, European",
    "rating": 4.4,
    "address": "Amador, 6, Calle Bandaneira, El Atabal, Puerto de la Torre, Málaga, Málaga-Costa del Sol, Málaga, Andalucía, 29190, España",
    "city": "Málaga",
    "lat": 36.7361506,
    "lon": -4.4747962
  },
  {
    "name": "El Vegetariano de la Alcazabilla",
    "topic": "Spanish, Mediterranean",
    "rating": 4.2,
    "address": "",
    "city": "Málaga"
  },
  {
    "name": "Divinno",
    "topic": "Mediterranean, European",
    "rating": 4.7,
    "address": "",
    "city": "Málaga"
  },
  {
    "name": "Sabor a Fuego",
    "topic": "Latin, Mediterranean",
    "rating": 4.4,
    "address": "",
    "city": "Málaga"
  },
  {
    "name": "LOS MARANGOS BEATAS - Comida Española",
    "topic": "Mediterranean, Spanish",
    "rating": 4.4,
    "address": "",
    "city": "Málaga"
  },
  {
    "name": "Canadu Vegetariano",
    "topic": "Mediterranean, Healthy",
    "rating": 4.2,
    "address": "",
    "city": "Málaga"
  },
  {
    "name": "Ciao Carretería 69",
    "topic": "Italian, Pizza",
    "rating": 4.3,
    "address": "",
    "city": "Málaga"
  },
  {
    "name": "Uvedoble Taberna",
    "topic": "Mediterranean, European",
    "rating": 4.3,
    "address": "",
    "city": "Málaga"
  },
  {
    "name": "Astrid Taperia Organica",
    "topic": "Bar, Mediterranean",
    "rating": 4.3,
    "address": "Astrid Tapería Orgánica, Calle Calderón de la Barca, Centro Histórico, Centro, Málaga, Málaga-Costa del Sol, Málaga, Andalucía, 29005, España",
    "city": "Málaga",
    "lat": 36.7203026,
    "lon": -4.4240402
  },
  {
    "name": "Óleo Restaurante",
    "topic": "Japanese, Mediterranean",
    "rating": 4.4,
    "address": "Óleo Restaurante, 4, Calle Casas de Campos, Soho, Centro, Málaga, Málaga-Costa del Sol, Málaga, Andalucía, 29001, España",
    "city": "Málaga",
    "lat": 36.7165787,
    "lon": -4.4217637
  },
  {
    "name": "Los Marangós Niño De Guevara",
    "topic": "Mediterranean, Spanish",
    "rating": 4.5,
    "address": "",
    "city": "Málaga"
  },
  {
    "name": "Hotel Castillo de Santa Catalina",
    "topic": "Spanish",
    "rating": 4.8,
    "address": "Soho Boutique Castillo de Santa Catalina, 38, Calle Ramos Carrión, Santa Paula Miramar, Este, Málaga, Málaga-Costa del Sol, Málaga, Andalucía, 29016, España",
    "city": "Málaga",
    "lat": 36.725063,
    "lon": -4.3940251
  },
  {
    "name": "La Cordobesa",
    "topic": "Mediterranean, Spanish",
    "rating": 5.0,
    "address": "Carril de la Cordobesa, Polígono Industrial La Pelusa, Carretera de Cádiz, Málaga, Málaga-Costa del Sol, Málaga, Andalucía, 29002, España",
    "city": "Málaga",
    "lat": 36.7062712,
    "lon": -4.4395995
  },
  {
    "name": "La Farola de Orellana",
    "topic": "Spanish",
    "rating": 4.4,
    "address": "La Farola de Orellana, 5, Calle Moreno Monroy, Centro Histórico, Centro, Málaga, Málaga-Costa del Sol, Málaga, Andalucía, 29015, España",
    "city": "Málaga",
    "lat": 36.7204689,
    "lon": -4.4210292
  },
  {
    "name": "Esquina Padilla",
    "topic": "Mediterranean, European",
    "rating": 4.6,
    "address": "",
    "city": "Málaga"
  },
  {
    "name": "Japantaco Japomex",
    "topic": "Mexican, Japanese",
    "rating": 4.7,
    "address": "",
    "city": "Málaga"
  },
  {
    "name": "El Pimentón",
    "topic": "Mediterranean, European",
    "rating": 4.2,
    "city": "Seville",
    "address": ""
  },
  {
    "name": "Terraviva",
    "topic": "Mediterranean, Spanish",
    "rating": 4.0,
    "city": "Seville",
    "address": ""
  },
  {
    "name": "Alimentari E Diversi",
    "topic": "Italian, Pizza",
    "rating": 4.9,
    "city": "Seville",
    "address": ""
  },
  {
    "name": "Fatouch",
    "topic": "Lebanese, Mediterranean",
    "rating": 4.9,
    "city": "Seville",
    "address": "Fatouch, 33, Calle Feria, Feria, Casco Antiguo, Sevilla, Andalucía, 41003, España",
    "lat": 37.3970819,
    "lon": -5.9913058
  },
  {
    "name": "Gascona",
    "topic": "Seafood, Mediterranean",
    "rating": 4.9,
    "city": "Seville",
    "address": ""
  },
  {
    "name": "Bodega Palo Santo",
    "topic": "Mediterranean, European",
    "rating": 4.7,
    "city": "Seville",
    "address": "Bodega Palo Santo, 5, Plaza de la Gavidia, Encarnación-Regina, Casco Antiguo, Sevilla, Andalucía, 41002, España",
    "lat": 37.3950484,
    "lon": -5.9967621
  },
  {
    "name": "MareaViva",
    "topic": "Mediterranean, European",
    "rating": 4.9,
    "city": "Seville",
    "address": ""
  },
  {
    "name": "Tropiqual",
    "topic": "Steakhouse, International",
    "rating": 4.7,
    "city": "Seville",
    "address": "Tropiqual, Plaza de la Encarnación, Encarnación-Regina, Casco Antiguo, Sevilla, Andalucía, 41003, España",
    "lat": 37.3933523,
    "lon": -5.992302
  },
  {
    "name": "La Santa",
    "topic": "Bar, Cafe",
    "rating": 4.8,
    "city": "Seville",
    "address": "La Santa, La Campana, Sevilla, Andalucía, 41429, España",
    "lat": 37.5289993,
    "lon": -5.4070271
  },
  {
    "name": "Il Ristorantino Dell' Avvocato",
    "topic": "Italian, Pizza",
    "rating": 4.9,
    "city": "Seville",
    "address": ""
  },
  {
    "name": "Alimentari",
    "topic": "Italian, Pizza",
    "rating": 4.8,
    "city": "Seville",
    "address": "Restaurante Alimentari, 21, Calle Bartolomé de Medina, San Bernardo, Nervión, Sevilla, Andalucía, 41004, España",
    "lat": 37.3840987,
    "lon": -5.9846149
  },
  {
    "name": "Infanta Sevilla",
    "topic": "Mediterranean, European",
    "rating": 4.9,
    "city": "Seville",
    "address": "Infanta Sevilla, 27, Avenida de Grecia, Huertas de San Gonzalo, Elcano-Los Bermejales, Distrito Bellavista-La Palmera, Sevilla, Andalucía, 41012, España",
    "lat": 37.3471706,
    "lon": -5.9832631
  },
  {
    "name": "La Comilona",
    "topic": "Mediterranean, Spanish",
    "rating": 4.8,
    "city": "Seville",
    "address": ""
  },
  {
    "name": "Islamorada Tapas Bar",
    "topic": "Spanish, Fusion",
    "rating": 4.8,
    "city": "Seville",
    "address": "Islamorada Tapas Bar, Calle Francisco López Borda, El Arenal, Casco Antiguo, Sevilla, Andalucía, 41001, España",
    "lat": 37.3856347,
    "lon": -5.9958018
  },
  {
    "name": "Bollywood Indian Restaurant Sevilla",
    "topic": "Indian, Healthy",
    "rating": 4.8,
    "city": "Seville",
    "address": ""
  },
  {
    "name": "Royalti",
    "topic": "Mediterranean, Spanish",
    "rating": 4.6,
    "city": "Seville",
    "address": ""
  },
  {
    "name": "Sibuya Urban Sushi Bar Sevilla",
    "topic": "Japanese, Bar",
    "rating": 4.9,
    "city": "Seville",
    "address": "Urban Sushi Bar Sibuya, Calle Rafael Alberti, La Mascareta, Tomares, Sevilla, Andalucía, 41940, España",
    "lat": 37.3694352,
    "lon": -6.040766
  },
  {
    "name": "Restaurante & Tapas El Sella",
    "topic": "Mediterranean, Spanish",
    "rating": 4.9,
    "city": "Seville",
    "address": "Restaurante y Tapas El Sella, Calle Fabié, Triana Casco Antiguo, Triana, Sevilla, Andalucía, 41010, España",
    "lat": 37.3847823,
    "lon": -6.0027284
  },
  {
    "name": "Vuela Tapas & Cocktail Bar",
    "topic": "Mediterranean, Spanish",
    "rating": 4.9,
    "city": "Seville",
    "address": ""
  },
  {
    "name": "Abaceria del Postigo",
    "topic": "Mediterranean, Spanish",
    "rating": 4.9,
    "city": "Seville",
    "address": "Abaceria del Postigo, Calle Tomás de Ybarra, El Arenal, Casco Antiguo, Sevilla, Andalucía, 41001, España",
    "lat": 37.3850174,
    "lon": -5.9946508
  },
  {
    "name": "La Sede",
    "topic": "Mediterranean, Spanish",
    "rating": 4.9,
    "city": "Seville",
    "address": "La Sede, 1, Calle Regina, Encarnación-Regina, Casco Antiguo, Sevilla, Andalucía, 41003, España",
    "lat": 37.3939306,
    "lon": -5.9918152
  },
  {
    "name": "Donaire Azabache (Polavieja)",
    "topic": "Mediterranean, Spanish",
    "rating": 4.8,
    "city": "Seville",
    "address": ""
  },
  {
    "name": "Acento - Social Eatery",
    "topic": "International, Mediterranean",
    "rating": 4.8,
    "city": "Seville",
    "address": ""
  },
  {
    "name": "La Carnívora Burger",
    "topic": "Burgers",
    "rating": 4.9,
    "city": "Seville",
    "address": ""
  },
  {
    "name": "Donaire Azabache - Archivos de Indias",
    "topic": "Mediterranean, European",
    "rating": 4.7,
    "city": "Seville",
    "address": ""
  },
  {
    "name": "Street Food Burger Bermejales",
    "topic": "American, Fast Food",
    "rating": 4.8,
    "city": "Seville",
    "address": ""
  },
  {
    "name": "Restaurante BraXas",
    "topic": "Steakhouse, International",
    "rating": 4.8,
    "city": "Seville",
    "address": "Braxas, Calle Almirante Apodaca, Encarnación-Regina, Casco Antiguo, Sevilla, Andalucía, 41003, España",
    "lat": 37.3928818,
    "lon": -5.9889219
  },
  {
    "name": "L' Orangier Cocina Casera y Tradicional",
    "topic": "Spanish, Dining bars",
    "rating": 4.7,
    "city": "Seville",
    "address": ""
  },
  {
    "name": "Atávico Gastronomía Ancestral",
    "topic": "Mediterranean, Spanish",
    "rating": 4.8,
    "city": "Seville",
    "address": ""
  },
  {
    "name": "Taberna de La Dehesa",
    "topic": "Spanish",
    "rating": 4.7,
    "city": "Seville",
    "address": "Taberna de la Dehesa, 2, Calle Luis de Morales, La Buhaira, Nervión, Sevilla, Andalucía, 41018, España",
    "lat": 37.3863313,
    "lon": -5.9727216
  },
  {
    "name": "Bar Triana",
    "topic": "Bar, Mediterranean",
    "rating": 4.7,
    "city": "Seville",
    "address": "Bar Triana., 73, Calle Castilla, Triana Casco Antiguo, Triana, Sevilla, Andalucía, 41010, España",
    "lat": 37.3877721,
    "lon": -6.0064855
  },
  {
    "name": "Arabesca Restaurant",
    "topic": "Lebanese, Moroccan",
    "rating": 4.8,
    "city": "Seville",
    "address": "Arabesca, Calle San Fernando, Santa Cruz, Casco Antiguo, Sevilla, Andalucía, 41004, España",
    "lat": 37.3819504,
    "lon": -5.9909458
  },
  {
    "name": "Restaurante La Casapuerta",
    "topic": "Mediterranean, European",
    "rating": 4.7,
    "city": "Seville",
    "address": "La Casapuerta, Calle San Roque, Museo, Casco Antiguo, Sevilla, Andalucía, 41001, España",
    "lat": 37.3915991,
    "lon": -5.9991085
  },
  {
    "name": "Ropavieja",
    "topic": "Mediterranean, European",
    "rating": 4.6,
    "city": "Seville",
    "address": ""
  },
  {
    "name": "Il Mago Pancione",
    "topic": "Italian, Pizza",
    "rating": 4.9,
    "city": "Seville",
    "address": ""
  },
  {
    "name": "Condendê",
    "topic": "Latin, Mediterranean",
    "rating": 4.8,
    "city": "Seville",
    "address": "Condendê, Plaza Calderón de la Barca, Feria, Casco Antiguo, Sevilla, Andalucía, 41003, España",
    "lat": 37.399468,
    "lon": -5.991109
  },
  {
    "name": "Al Wadi",
    "topic": "Moroccan",
    "rating": 4.7,
    "city": "Seville",
    "address": "Al Wadi, Calle Jimios, El Arenal, Casco Antiguo, Sevilla, Andalucía, 41001, España",
    "lat": 37.3867884,
    "lon": -5.9948054
  },
  {
    "name": "Bendala Brasería",
    "topic": "Mediterranean, Spanish",
    "rating": 4.7,
    "city": "Seville",
    "address": "Bendala Brasería, 4, Paseo Catalina de Ribera, San Bartolomé, Casco Antiguo, Sevilla, Andalucía, 41004, España",
    "lat": 37.3854867,
    "lon": -5.9866812
  },
  {
    "name": "Favorito Mi Lugar",
    "topic": "Spanish, Fusion",
    "rating": 4.7,
    "city": "Seville",
    "address": ""
  },
  {
    "name": "Bocatti di Cardinale",
    "topic": "Mediterranean, Spanish",
    "rating": 4.7,
    "city": "Seville",
    "address": ""
  },
  {
    "name": "Mokambo | Plaza Nueva",
    "topic": "Healthy, International",
    "rating": 4.9,
    "city": "Seville",
    "address": ""
  },
  {
    "name": "Vega 10",
    "topic": "Mediterranean, European",
    "rating": 4.6,
    "city": "Seville",
    "address": "Vega 10, Calle Rosario Vega, Triana Casco Antiguo, Triana, Sevilla, Andalucía, 41010, España",
    "lat": 37.3807613,
    "lon": -5.9995079
  },
  {
    "name": "Ta'Kool Restaurant",
    "topic": "Mexican, Southwestern",
    "rating": 4.8,
    "city": "Seville",
    "address": ""
  },
  {
    "name": "Da Pino",
    "topic": "Italian, Pizza",
    "rating": 4.6,
    "city": "Seville",
    "address": "Pino Montano, Distrito Norte, Sevilla, Andalucía, España",
    "lat": 37.4234233,
    "lon": -5.965486
  },
  {
    "name": "Bistro Los Tulipanes",
    "topic": "Dutch, International",
    "rating": 4.8,
    "city": "Seville",
    "address": ""
  },
  {
    "name": "Versátil mi lugar",
    "topic": "Bar, Mediterranean",
    "rating": 4.7,
    "city": "Seville",
    "address": ""
  },
  {
    "name": "Betis 7 Triana Experience",
    "topic": "Mediterranean, European",
    "rating": 4.6,
    "city": "Seville",
    "address": ""
  },
  {
    "name": "El Rincon De Beirut",
    "topic": "Lebanese, Healthy",
    "rating": 4.7,
    "city": "Seville",
    "address": "El Rincón de Beirut, 21, Calle San Fernando, Santa Cruz, Casco Antiguo, Sevilla, Andalucía, 41004, España",
    "lat": 37.382018,
    "lon": -5.9910428
  },
  {
    "name": "Muelle 21 Restaurante",
    "topic": "Mediterranean, Spanish",
    "rating": 4.7,
    "city": "Seville",
    "address": ""
  },
  {
    "name": "La Madriguera De Mai",
    "topic": "Mediterranean, Spanish",
    "rating": 4.8,
    "city": "Seville",
    "address": "La Madriguera de Mai, Calle Arrayán, Feria, Casco Antiguo, Sevilla, Andalucía, 41002, España",
    "lat": 37.3994151,
    "lon": -5.9893016
  },
  {
    "name": "La Bartola",
    "topic": "Bar, Mediterranean",
    "rating": 4.6,
    "city": "Seville",
    "address": "La Bartola, 24, Calle San José, San Bartolomé, Casco Antiguo, Sevilla, Andalucía, 41004, España",
    "lat": 37.386815,
    "lon": -5.9879857
  },
  {
    "name": "La Malvaloca",
    "topic": "Mediterranean, Spanish",
    "rating": 4.7,
    "city": "Seville",
    "address": "La Malvaloca, Plaza de la Encarnación, Encarnación-Regina, Casco Antiguo, Sevilla, Andalucía, 41003, España",
    "lat": 37.3922149,
    "lon": -5.9921768
  },
  {
    "name": "La Cayetana Bistro Andalú",
    "topic": "Mediterranean, Spanish",
    "rating": 4.6,
    "city": "Seville",
    "address": ""
  },
  {
    "name": "Cristina-Bistro",
    "topic": "Spanish",
    "rating": 4.5,
    "city": "Seville",
    "address": ""
  },
  {
    "name": "La Escalona",
    "topic": "Spanish, Healthy",
    "rating": 4.6,
    "city": "Seville",
    "address": "La Escalona, Calle Alcaicería de la Loza, Alfalfa, Casco Antiguo, Sevilla, Andalucía, 41004, España",
    "lat": 37.3903364,
    "lon": -5.9910578
  },
  {
    "name": "Patio San Eloy - Regina",
    "topic": "Bar, Mediterranean",
    "rating": 4.7,
    "city": "Seville",
    "address": "Patio San Eloy, 14, Calle Alhóndiga, Encarnación-Regina, Casco Antiguo, Sevilla, Andalucía, 41003, España",
    "lat": 37.3929845,
    "lon": -5.9885279
  },
  {
    "name": "Petra",
    "topic": "Mediterranean, European",
    "rating": 4.7,
    "city": "Seville",
    "address": "Petra, Calle Alfalfa, Alfalfa, Casco Antiguo, Sevilla, Andalucía, 41004, España",
    "lat": 37.3901562,
    "lon": -5.9902568
  },
  {
    "name": "Masakali Pizza Cristo de Burgos",
    "topic": "Italian, Pizza",
    "rating": 4.9,
    "city": "Seville",
    "address": ""
  },
  {
    "name": "SedeMéxico - Restaurante Mexicano Sevilla",
    "topic": "Mexican",
    "rating": 4.7,
    "city": "Seville",
    "address": ""
  },
  {
    "name": "La Industrial Los Remedios",
    "topic": "Cafe, Mediterranean",
    "rating": 4.8,
    "city": "Seville",
    "address": "Carretera de la Esclusa, Tablada, Los Remedios, Sevilla, Andalucía, 41120, España",
    "lat": 37.3397821,
    "lon": -6.0030029
  },
  {
    "name": "Puratasca",
    "topic": "Mediterranean, European",
    "rating": 4.5,
    "city": "Seville",
    "address": "Puratasca, 5, Calle Numancia, Nucleo Residencial Josefa Ramos de la Orden, Triana, Sevilla, Andalucía, 41010, España",
    "lat": 37.3866266,
    "lon": -6.0102218
  },
  {
    "name": "Palo Cortao",
    "topic": "European, Contemporary",
    "rating": 4.6,
    "city": "Seville",
    "address": "Palo cortao, 2, Calle Castelar, El Arenal, Casco Antiguo, Sevilla, Andalucía, 41001, España",
    "lat": 37.3863849,
    "lon": -5.9962066
  },
  {
    "name": "Hops and Dreams",
    "topic": "Brew Pub, Bar",
    "rating": 4.6,
    "city": "Seville",
    "address": ""
  },
  {
    "name": "La Linterna Ciega",
    "topic": "Brew Pub, Bar",
    "rating": 4.7,
    "city": "Seville",
    "address": ""
  },
  {
    "name": "Las Tablas Sevilla",
    "topic": "Bar, Mediterranean",
    "rating": 4.6,
    "city": "Seville",
    "address": "Las Tablas, Lebrija, Sevilla, Andalucía, España",
    "lat": 37.0306348,
    "lon": -6.1163447
  },
  {
    "name": "El Librero Tapas Y Quesos",
    "topic": "Mediterranean, European",
    "rating": 4.4,
    "city": "Seville",
    "address": ""
  },
  {
    "name": "Maquila Bar",
    "topic": "Mediterranean, European",
    "rating": 4.5,
    "city": "Seville",
    "address": "Maquila, 4, Calle Delgado, Feria, Casco Antiguo, Sevilla, Andalucía, 41002, España",
    "lat": 37.396074,
    "lon": -5.9944684
  },
  {
    "name": "Bacao",
    "topic": "French, Steakhouse",
    "rating": 4.5,
    "city": "Seville",
    "address": ""
  },
  {
    "name": "El Pasaje Santa María la Blanca",
    "topic": "Mediterranean, European",
    "rating": 4.4,
    "city": "Seville",
    "address": ""
  },
  {
    "name": "El Traga",
    "topic": "Mediterranean, European",
    "rating": 4.5,
    "city": "Seville",
    "address": "El Traga, 6, Calle Águilas, Alfalfa, Casco Antiguo, Sevilla, Andalucía, 41004, España",
    "lat": 37.3898244,
    "lon": -5.9892675
  },
  {
    "name": "Street Food Burger Viapol",
    "topic": "American, Fast Food",
    "rating": 4.7,
    "city": "Seville",
    "address": ""
  },
  {
    "name": "Restaurante Eslava",
    "topic": "Mediterranean, European",
    "rating": 4.6,
    "city": "Seville",
    "address": ""
  },
  {
    "name": "Restaurante Az-Zait",
    "topic": "Mediterranean, European",
    "rating": 4.5,
    "city": "Seville",
    "address": "Az-Zait, 1, Plaza de San Lorenzo, San Lorenzo, Casco Antiguo, Sevilla, Andalucía, 41002, España",
    "lat": 37.3968228,
    "lon": -5.9964653
  },
  {
    "name": "Tipico Barra De Tapas",
    "topic": "Bar, Mediterranean",
    "rating": 4.6,
    "city": "Seville",
    "address": ""
  },
  {
    "name": "Restaurante Al Sultan - La Alameda",
    "topic": "Lebanese, Moroccan",
    "rating": 4.7,
    "city": "Seville",
    "address": ""
  },
  {
    "name": "Bar Alfalfa",
    "topic": "Bar, Mediterranean",
    "rating": 4.5,
    "city": "Seville",
    "address": "Bar Alfalfa, 1, Calle Candilejo, Alfalfa, Casco Antiguo, Sevilla, Andalucía, 41004, España",
    "lat": 37.3899821,
    "lon": -5.9901613
  },
  {
    "name": "El Pasaje Tapas",
    "topic": "International, Mediterranean",
    "rating": 4.5,
    "city": "Seville",
    "address": ""
  },
  {
    "name": "La Cochera del Abuelo",
    "topic": "International, Mediterranean",
    "rating": 4.7,
    "city": "Seville",
    "address": "La Cochera del Abuelo, 2, Calle Álvaro de Bazán, San Lorenzo, Casco Antiguo, Sevilla, Andalucía, 41002, España",
    "lat": 37.4010481,
    "lon": -5.9964491
  },
  {
    "name": "Vineria San Telmo",
    "topic": "International, Mediterranean",
    "rating": 4.4,
    "city": "Seville",
    "address": "Vinería San Telmo, Paseo Catalina de Ribera, San Bartolomé, Casco Antiguo, Sevilla, Andalucía, 41004, España",
    "lat": 37.3854551,
    "lon": -5.986635
  },
  {
    "name": "De La O",
    "topic": "Mediterranean, Spanish",
    "rating": 4.5,
    "city": "Seville",
    "address": "Plaza de toros La Maestranza de Sevilla, 12, Paseo de Cristóbal Colón, El Arenal, Casco Antiguo, Sevilla, Andalucía, 41001, España",
    "lat": 37.3859079,
    "lon": -5.9989192
  },
  {
    "name": "Milonga's Restaurante Argentino - Nervión",
    "topic": "Steakhouse, Latin",
    "rating": 4.5,
    "city": "Seville",
    "address": ""
  },
  {
    "name": "Mechela",
    "topic": "Mediterranean, European",
    "rating": 4.5,
    "city": "Seville",
    "address": "Mechela, Calle Bailén, Museo, Casco Antiguo, Sevilla, Andalucía, 41001, España",
    "lat": 37.3913903,
    "lon": -5.9994874
  },
  {
    "name": "conTenedor",
    "topic": "Mediterranean, European",
    "rating": 4.4,
    "city": "Seville",
    "address": "ConTenedor, 50, Calle San Luis, San Julián, Casco Antiguo, Sevilla, Andalucía, 41003, España",
    "lat": 37.39842,
    "lon": -5.9879244
  },
  {
    "name": "Uno de Delicias",
    "topic": "Bar, Spanish",
    "rating": 4.5,
    "city": "Seville",
    "address": "Uno de Delicias, 1, Paseo de las Delicias, Santa Cruz, Casco Antiguo, Sevilla, Andalucía, 41001, España",
    "lat": 37.3821263,
    "lon": -5.9955157
  },
  {
    "name": "Restaurante La Salá",
    "topic": "Peruvian, Latin",
    "rating": 4.7,
    "city": "Seville",
    "address": ""
  },
  {
    "name": "Catalina Casa de Comidas",
    "topic": "Mediterranean, European",
    "rating": 4.5,
    "city": "Seville",
    "address": ""
  },
  {
    "name": "Maestro Marcelino",
    "topic": "Mediterranean, European",
    "rating": 4.6,
    "city": "Seville",
    "address": "Maestro Marcelino, 9, Calle Hernando Colón, Santa Cruz, Casco Antiguo, Sevilla, Andalucía, 41001, España",
    "lat": 37.3875614,
    "lon": -5.9934648
  },
  {
    "name": "La Cantina Mexicana",
    "topic": "Mexican, Latin",
    "rating": 4.5,
    "city": "Seville",
    "address": ""
  },
  {
    "name": "Alcázar - Andalusí Tapas",
    "topic": "Mediterranean, European",
    "rating": 4.5,
    "city": "Seville",
    "address": ""
  },
  {
    "name": "El Burladero",
    "topic": "Mediterranean, European",
    "rating": 4.5,
    "city": "Seville",
    "address": "El Burladero, 90, Calle Gitanito de Triana, Tablada, Los Remedios, Sevilla, Andalucía, 41011, España",
    "lat": 37.3710994,
    "lon": -6.0002166
  },
  {
    "name": "La Barca de Calderón",
    "topic": "Mediterranean, Spanish",
    "rating": 4.6,
    "city": "Seville",
    "address": "041 Plaza Calderón de la Barca, Plaza Calderón de la Barca, Feria, Casco Antiguo, Sevilla, Andalucía, 41002, España",
    "lat": 37.3994884,
    "lon": -5.9909861
  },
  {
    "name": "La Bodega de la Alfalfa",
    "topic": "Bar, Mediterranean",
    "rating": 4.4,
    "city": "Seville",
    "address": "La Bodega, Calle Alfalfa, Alfalfa, Casco Antiguo, Sevilla, Andalucía, 41004, España",
    "lat": 37.3900571,
    "lon": -5.9903014
  },
  {
    "name": "Blanca Paloma",
    "topic": "Mediterranean, Spanish",
    "rating": 4.5,
    "city": "Seville",
    "address": "Blanca Paloma, 51, Calle San Jacinto, Triana Este, Triana, Sevilla, Andalucía, 41010, España",
    "lat": 37.3830762,
    "lon": -6.005912
  },
  {
    "name": "Palacio Andaluz Almona",
    "topic": "3,029 Moroccan",
    "rating": 4.8,
    "city": "Granada",
    "address": "Palacio Andaluz Tetería Almona, 1, Placeta Almona del Albaicín, Albaicín Alto, Albaicín, Granada, Comarca de la Vega de Granada, Granada, Andalucía, 18010, España",
    "lat": 37.1828394,
    "lon": -3.5939594
  },
  {
    "name": "La Telefonica",
    "topic": "2,446 Mediterranean, Spanish",
    "rating": 4.9,
    "city": "Granada",
    "address": "La Telefónica, Calle Arco de las Orejas, Sagrario, Centro - Sagrario, Centro, Granada, Comarca de la Vega de Granada, Granada, Andalucía, 18001, España",
    "lat": 37.1745782,
    "lon": -3.5999796
  },
  {
    "name": "d'Sano",
    "topic": "782 Cafe",
    "rating": 4.8,
    "city": "Granada",
    "address": "D'Sano, 24, Calle San Jerónimo, Barrio de San Jerónimo, Centro - Sagrario, Centro, Granada, Comarca de la Vega de Granada, Granada, Andalucía, 18001, España",
    "lat": 37.1780093,
    "lon": -3.6008782
  },
  {
    "name": "Flamenco Granada - Tablao Jardines de Zoraya",
    "topic": "5,451 Steakhouse, Mediterranean",
    "rating": 4.7,
    "city": "Granada",
    "address": ""
  },
  {
    "name": "Betula Nana",
    "topic": "158 Spanish, Healthy",
    "rating": 4.9,
    "city": "Granada",
    "address": "Betula Nana, Calle Málaga, Barrio de la Duquesa, Centro - Sagrario, Centro, Granada, Comarca de la Vega de Granada, Granada, Andalucía, 18001, España",
    "lat": 37.1771687,
    "lon": -3.6022721
  },
  {
    "name": "La Autentica Carmela",
    "topic": "3,606 International, Mediterranean",
    "rating": 4.4,
    "city": "Granada",
    "address": ""
  },
  {
    "name": "El Mercader",
    "topic": "2,004 International, Mediterranean",
    "rating": 4.8,
    "city": "Granada",
    "address": "El Mercader, 2, Calle Imprenta, Albaicín Bajo, Albaicín, Granada, Comarca de la Vega de Granada, Granada, Andalucía, 18010, España",
    "lat": 37.1771648,
    "lon": -3.5962852
  },
  {
    "name": "La Nonna Carmela",
    "topic": "545 Italian, Pizza",
    "rating": 4.8,
    "city": "Granada",
    "address": "La Nonna Carmela, Calle Arco de las Cucharas, Sagrario, Centro - Sagrario, Centro, Granada, Comarca de la Vega de Granada, Granada, Andalucía, 18001, España",
    "lat": 37.1750089,
    "lon": -3.6000882
  },
  {
    "name": "Antojitos Mexican Food",
    "topic": "3,388 Mexican, Latin",
    "rating": 4.9,
    "city": "Granada",
    "address": ""
  },
  {
    "name": "Papas Elvira",
    "topic": "565 Lebanese, Moroccan",
    "rating": 4.8,
    "city": "Granada",
    "address": "Papas Elvira, 9, Calle Elvira, Sagrario, Centro - Sagrario, Centro, Granada, Comarca de la Vega de Granada, Granada, Andalucía, 18010, España",
    "lat": 37.1770174,
    "lon": -3.5968852
  },
  {
    "name": "Castillo de Aleppo",
    "topic": "277 Healthy, Middle Eastern",
    "rating": 4.8,
    "city": "Granada",
    "address": ""
  },
  {
    "name": "Aisushi Restaurante Arabial",
    "topic": "3,203 Japanese, Sushi",
    "rating": 4.8,
    "city": "Granada",
    "address": "Aisushi, 54, Calle Arabial, Ronda, Granada, Comarca de la Vega de Granada, Granada, Andalucía, 18004, España",
    "lat": 37.1734566,
    "lon": -3.6092394
  },
  {
    "name": "El Pescaito De Carmela",
    "topic": "3,398 Seafood, Mediterranean",
    "rating": 4.5,
    "city": "Granada",
    "address": "El Pescaíto de Carmela, 12, Calle Marqués de Gerona, Sagrario, Centro - Sagrario, Centro, Granada, Comarca de la Vega de Granada, Granada, Andalucía, 18001, España",
    "lat": 37.1757342,
    "lon": -3.6008349
  },
  {
    "name": "Margarita Empanadas Argentinas - Granada Centro",
    "topic": "101 Fast Food, Argentinean",
    "rating": 4.9,
    "city": "Granada",
    "address": ""
  },
  {
    "name": "Faralá",
    "topic": "928 International, Mediterranean",
    "rating": 4.8,
    "city": "Granada",
    "address": "Faralā, Cuesta de Gomérez, El Mauror, San Matías - Realejo, Centro, Granada, Comarca de la Vega de Granada, Granada, Andalucía, 18009, España",
    "lat": 37.1763791,
    "lon": -3.5952342
  },
  {
    "name": "Reverso gastrobar",
    "topic": "118 Mexican, Mediterranean",
    "rating": 4.9,
    "city": "Granada",
    "address": ""
  },
  {
    "name": "La Cuchara De Carmela",
    "topic": "1,850 Mediterranean, Spanish",
    "rating": 4.5,
    "city": "Granada",
    "address": "La Cuchara de Carmela, 1, Paseo de los Basilios, Ciudad Jardín, Cervantes, Genil, Granada, Comarca de la Vega de Granada, Granada, Andalucía, 18009, España",
    "lat": 37.1679198,
    "lon": -3.5957596
  },
  {
    "name": "Margarita Empanadas Argentinas - Jardín De La Reina Granada",
    "topic": "348 Fast Food, Street Food",
    "rating": 5.0,
    "city": "Granada",
    "address": ""
  },
  {
    "name": "Divino Ristorante Italiano",
    "topic": "782 Italian, European",
    "rating": 4.9,
    "city": "Granada",
    "address": ""
  },
  {
    "name": "La Piccola Carmela",
    "topic": "945 Italian, Pizza",
    "rating": 4.7,
    "city": "Granada",
    "address": "La Piccola Carmela, 63, Calle Reyes Católicos, Sagrario, Centro - Sagrario, Centro, Granada, Comarca de la Vega de Granada, Granada, Andalucía, 18010, España",
    "lat": 37.1763936,
    "lon": -3.5967522
  },
  {
    "name": "Pizzeria Tradizione Italiana",
    "topic": "305 Italian, Pizza",
    "rating": 4.9,
    "city": "Granada",
    "address": ""
  },
  {
    "name": "La Taberna de Kafka",
    "topic": "245 Mediterranean, European",
    "rating": 4.7,
    "city": "Granada",
    "address": "La Taberna de Kafka, 2, Calle Huete, Realejo, San Matías - Realejo, Centro, Granada, Comarca de la Vega de Granada, Granada, Andalucía, 18009, España",
    "lat": 37.1724507,
    "lon": -3.5918808
  },
  {
    "name": "Restaurante Cala",
    "topic": "305 Mediterranean, Spanish",
    "rating": 4.8,
    "city": "Granada",
    "address": ""
  },
  {
    "name": "Restaurante Versos Sueltos",
    "topic": "177 International, Mediterranean",
    "rating": 5.0,
    "city": "Granada",
    "address": ""
  },
  {
    "name": "Pilar del Toro",
    "topic": "652 Mediterranean, European",
    "rating": 4.3,
    "city": "Granada",
    "address": "Pilar del Toro, Calle Hospital de Santa Ana, La Almanzora, San Matías - Realejo, Centro, Granada, Comarca de la Vega de Granada, Granada, Andalucía, 18010, España",
    "lat": 37.1769834,
    "lon": -3.5949756
  },
  {
    "name": "Apö Restaurante",
    "topic": "568 Steakhouse, Mediterranean",
    "rating": 4.9,
    "city": "Granada",
    "address": "Apo, Calle Parra Baja, San Lázaro, Plaza Toros - Doctores - San Lázaro, Beiro, Granada, Comarca de la Vega de Granada, Granada, Andalucía, 18012, España",
    "lat": 37.1863182,
    "lon": -3.6056532
  },
  {
    "name": "El Trillo Restaurante Granada",
    "topic": "3,240 Mediterranean, European",
    "rating": 4.5,
    "city": "Granada",
    "address": "El Trillo, Callejón Aljibe de Trillo, Albaicín Bajo, Albaicín, Granada, Comarca de la Vega de Granada, Granada, Andalucía, 18010, España",
    "lat": 37.1798049,
    "lon": -3.5933824
  },
  {
    "name": "Capitán Amargo Craft Beer Bar",
    "topic": "359 Bar, European",
    "rating": 4.9,
    "city": "Granada",
    "address": ""
  },
  {
    "name": "Taberna La Zarzamora",
    "topic": "372 Mediterranean, Spanish",
    "rating": 4.8,
    "city": "Granada",
    "address": ""
  },
  {
    "name": "Docetrescientos",
    "topic": "142 Mediterranean, Spanish",
    "rating": 4.9,
    "city": "Granada",
    "address": ""
  },
  {
    "name": "MenuImaginative food with excellent presentation. GranadaPalacio Andaluz Almona",
    "topic": "3,029 Moroccan",
    "rating": 4.8,
    "city": "Granada",
    "address": ""
  },
  {
    "name": "El Quejio Wine-bar",
    "topic": "108 Spanish, Wine Bar",
    "rating": 4.9,
    "city": "Granada",
    "address": ""
  },
  {
    "name": "Cacho & Pepe",
    "topic": "1,441 Italian, Mediterranean",
    "rating": 4.8,
    "city": "Granada",
    "address": "cacho&pepe, Calle Colcha, San Matías, San Matías - Realejo, Centro, Granada, Comarca de la Vega de Granada, Granada, Andalucía, 18009, España",
    "lat": 37.1758693,
    "lon": -3.5965646
  },
  {
    "name": "Escuela de Hosteleria La Inmaculada",
    "topic": "203 International, Mediterranean",
    "rating": 5.0,
    "city": "Granada",
    "address": ""
  },
  {
    "name": "KIĀTO",
    "topic": "368 Japanese, Sushi",
    "rating": 4.9,
    "city": "Granada",
    "address": ""
  },
  {
    "name": "La Gramola",
    "topic": "105 Bar, Cafe",
    "rating": 4.9,
    "city": "Granada",
    "address": "Karaoke La Gramola, Calle Ancha de Gracia, Ronda, Granada, Comarca de la Vega de Granada, Granada, Andalucía, 18002, España",
    "lat": 37.1720947,
    "lon": -3.6052349
  },
  {
    "name": "Tocateja",
    "topic": "371 Spanish, Wine Bar",
    "rating": 4.6,
    "city": "Granada",
    "address": "Tocateja, Calle Trinidad, Barrio de la Duquesa, Centro - Sagrario, Centro, Granada, Comarca de la Vega de Granada, Granada, Andalucía, 18001, España",
    "lat": 37.1768847,
    "lon": -3.6015902
  },
  {
    "name": "El Orejas Cocinalenta",
    "topic": "79 Steakhouse, Mediterranean",
    "rating": 4.9,
    "city": "Granada",
    "address": ""
  },
  {
    "name": "Fogón de Galicia",
    "topic": "2,083 Spanish",
    "rating": 4.5,
    "city": "Granada",
    "address": ""
  },
  {
    "name": "El Rincón De Julio",
    "topic": "319 Mediterranean, Spanish",
    "rating": 4.7,
    "city": "Granada",
    "address": ""
  },
  {
    "name": "Borsalino",
    "topic": "444 Bar, Cafe",
    "rating": 4.5,
    "city": "Granada",
    "address": "Borsalino, Calle Curro Cúchares, Albayda, La Cruz, Beiro, Granada, Comarca de la Vega de Granada, Granada, Andalucía, 18014, España",
    "lat": 37.1955584,
    "lon": -3.6101428
  },
  {
    "name": "Entrebrasas Granada",
    "topic": "1,836 Steakhouse, Bar",
    "rating": 4.6,
    "city": "Granada",
    "address": "EntreBrasas, 27, Calle Navas, La Manigua, San Matías - Realejo, Centro, Granada, Comarca de la Vega de Granada, Granada, Andalucía, 18009, España",
    "lat": 37.1737106,
    "lon": -3.5984501
  },
  {
    "name": "Asador Contrapunto",
    "topic": "300 Steakhouse, Barbecue",
    "rating": 4.6,
    "city": "Granada",
    "address": ""
  },
  {
    "name": "Restaurante Carmen El Agua",
    "topic": "1,277 International, Fusion",
    "rating": 4.3,
    "city": "Granada",
    "address": ""
  },
  {
    "name": "Meson El Cordobes De Jose Peregrina",
    "topic": "836 Seafood, Mediterranean",
    "rating": 4.7,
    "city": "Granada",
    "address": "Mesón El Cordobés de José Peregrina, 5, Calle Artesano Molero, Ronda, Granada, Comarca de la Vega de Granada, Granada, Andalucía, 18004, España",
    "lat": 37.1809471,
    "lon": -3.6147491
  },
  {
    "name": "Carmen de Aben Humeya",
    "topic": "782 Mediterranean, European",
    "rating": 4.3,
    "city": "Granada",
    "address": ""
  },
  {
    "name": "Bar Poe",
    "topic": "602 Bar, Spanish",
    "rating": 4.6,
    "city": "Granada",
    "address": "Bar Poë, 40, Calle Verónica de la Magdalena, Barrio de la Magdalena, Centro - Sagrario, Centro, Granada, Comarca de la Vega de Granada, Granada, Andalucía, 18002, España",
    "lat": 37.1743831,
    "lon": -3.6034446
  },
  {
    "name": "Pizzería Bella Ciao",
    "topic": "243 Italian, Pizza",
    "rating": 4.8,
    "city": "Granada",
    "address": "Pizzería Bella Ciao, 1, Calle Músico Vicente Zarzo, Ronda, Granada, Comarca de la Vega de Granada, Granada, Andalucía, 18002, España",
    "lat": 37.1726275,
    "lon": -3.6050995
  },
  {
    "name": "Aylin Art Cuisine",
    "topic": "150 Steakhouse, Mediterranean",
    "rating": 4.7,
    "city": "Granada",
    "address": "Aylin Art Cuisine, 12, Avenida de Madrid, Barrio del Hospital Real, San Ildefonso, Beiro, Granada, Comarca de la Vega de Granada, Granada, Andalucía, 18012, España",
    "lat": 37.1845495,
    "lon": -3.6042959
  },
  {
    "name": "Atelier Casa de Comidas",
    "topic": "429 Mediterranean, European",
    "rating": 4.7,
    "city": "Granada",
    "address": ""
  },
  {
    "name": "Bar Avila",
    "topic": "1,145 Bar, Mediterranean",
    "rating": 4.5,
    "city": "Granada",
    "address": "Ávila, 16, Calle Verónica de la Virgen, Barrio de San Antón, Fígares, Ronda, Granada, Comarca de la Vega de Granada, Granada, Andalucía, 18005, España",
    "lat": 37.1700208,
    "lon": -3.5990908
  },
  {
    "name": "Bongo",
    "topic": "543 International, Mediterranean",
    "rating": 4.6,
    "city": "Granada",
    "address": "Bongo, 2, Plaza de Isabel la Católica, San Matías, San Matías - Realejo, Centro, Granada, Comarca de la Vega de Granada, Granada, Andalucía, 18009, España",
    "lat": 37.1756323,
    "lon": -3.596726
  },
  {
    "name": "Negro Carbón Albayzín",
    "topic": "1,459 Steakhouse, Mediterranean",
    "rating": 4.5,
    "city": "Granada",
    "address": ""
  },
  {
    "name": "Pizzeria La Nonna",
    "topic": "483 Italian, Pizza",
    "rating": 4.7,
    "city": "Granada",
    "address": "Pizzería La Nonna, Calle Doctor Fleming, Doctores, Plaza Toros - Doctores - San Lázaro, Beiro, Granada, Comarca de la Vega de Granada, Granada, Andalucía, 18012, España",
    "lat": 37.1905376,
    "lon": -3.6094694
  },
  {
    "name": "La Riviera",
    "topic": "1,832 Bar, Mediterranean",
    "rating": 4.3,
    "city": "Granada",
    "address": "La Riviera, Calle Cetti Meriem, Sagrario, Centro - Sagrario, Centro, Granada, Comarca de la Vega de Granada, Granada, Andalucía, 18010, España",
    "lat": 37.1773099,
    "lon": -3.5975753
  },
  {
    "name": "La Pajuana",
    "topic": "457 Bar, Mediterranean",
    "rating": 4.6,
    "city": "Granada",
    "address": ""
  },
  {
    "name": "Biloba",
    "topic": "749 International, Mediterranean",
    "rating": 4.6,
    "city": "Granada",
    "address": ""
  },
  {
    "name": "Restaurante Carmen Mirador de Aixa",
    "topic": "1,051 Mediterranean, European",
    "rating": 4.3,
    "city": "Granada",
    "address": ""
  },
  {
    "name": "Restaurante Estrellas de San Nicolás",
    "topic": "2,373 Spanish",
    "rating": 4.2,
    "city": "Granada",
    "address": "Estrellas de San Nicolás, 1, Callejón Atarazana Vieja, Albaicín Alto, Albaicín, Granada, Comarca de la Vega de Granada, Granada, Andalucía, 18010, España",
    "lat": 37.1811465,
    "lon": -3.5923587
  },
  {
    "name": "Casa Gabriel",
    "topic": "536 Steakhouse, Mediterranean",
    "rating": 4.5,
    "city": "Granada",
    "address": "Casa Gabriel, 29, Calle Pagés, Albaicín Alto, Albaicín, Granada, Comarca de la Vega de Granada, Granada, Andalucía, 18010, España",
    "lat": 37.1838123,
    "lon": -3.5933384
  },
  {
    "name": "Restaurante Vegano Hicuri",
    "topic": "968 European, Spanish",
    "rating": 4.6,
    "city": "Granada",
    "address": "Restaurante Vegano Hicuri, 4, Plaza de los Girones, El Mauror, San Matías - Realejo, Centro, Granada, Comarca de la Vega de Granada, Granada, Andalucía, 18009, España",
    "lat": 37.1741865,
    "lon": -3.5950216
  },
  {
    "name": "Thai w soya.Great vegetarian (vegan) foodPalacio Andaluz Almona",
    "topic": "3,029 Moroccan",
    "rating": 4.8,
    "city": "Granada",
    "address": ""
  },
  {
    "name": "Los Diamantes - Navas",
    "topic": "5,651 Bar, Seafood",
    "rating": 4.3,
    "city": "Granada",
    "address": "Bar Los Diamantes, 28, Calle Navas, La Manigua, San Matías - Realejo, Centro, Granada, Comarca de la Vega de Granada, Granada, Andalucía, 18009, España",
    "lat": 37.1737296,
    "lon": -3.5983333
  },
  {
    "name": "Taberna La Tana",
    "topic": "1,441 European, Bar",
    "rating": 4.5,
    "city": "Granada",
    "address": "Taberna La Tana, 3, Placeta del Agua, San Matías, San Matías - Realejo, Centro, Granada, Comarca de la Vega de Granada, Granada, Andalucía, 18009, España",
    "lat": 37.1727477,
    "lon": -3.5960907
  },
  {
    "name": "Om-Kalsum",
    "topic": "355 Moroccan, Mediterranean",
    "rating": 4.5,
    "city": "Granada",
    "address": ""
  },
  {
    "name": "Rincon De Rodri",
    "topic": "514 Seafood, Mediterranean",
    "rating": 4.5,
    "city": "Granada",
    "address": "El Rincón de Rodri, Calle Músico Vicente Zarzo, Ronda, Granada, Comarca de la Vega de Granada, Granada, Andalucía, 18002, España",
    "lat": 37.1724596,
    "lon": -3.6053837
  },
  {
    "name": "Restaurante Las Tomasas",
    "topic": "718 Bar",
    "rating": 4.3,
    "city": "Granada",
    "address": "Restaurante Las Tomasas, 4, Carril de San Agustín, Albaicín Alto, Albaicín, Granada, Comarca de la Vega de Granada, Granada, Andalucía, 18010, España",
    "lat": 37.180852,
    "lon": -3.5908443
  },
  {
    "name": "Pimienta Rosa",
    "topic": "204 Mediterranean, European",
    "rating": 4.6,
    "city": "Granada",
    "address": "Pimienta Rosa, Plaza Pescadería, Sagrario, Centro - Sagrario, Centro, Granada, Comarca de la Vega de Granada, Granada, Andalucía, 18001, España",
    "lat": 37.1756573,
    "lon": -3.6003892
  },
  {
    "name": "Samarkanda libanés",
    "topic": "356 Lebanese",
    "rating": 4.4,
    "city": "Granada",
    "address": ""
  },
  {
    "name": "La Botilleria",
    "topic": "1,442 Mediterranean, European",
    "rating": 4.5,
    "city": "Granada",
    "address": "La Botillería, 10, Calle Varela, San Matías, San Matías - Realejo, Centro, Granada, Comarca de la Vega de Granada, Granada, Andalucía, 18009, España",
    "lat": 37.1730062,
    "lon": -3.5962494
  },
  {
    "name": "Perromedio",
    "topic": "245 Mediterranean, European",
    "rating": 4.4,
    "city": "Granada",
    "address": "Perromedio, Plaza del Carmen, La Manigua, San Matías - Realejo, Centro, Granada, Comarca de la Vega de Granada, Granada, Andalucía, 18001, España",
    "lat": 37.1738317,
    "lon": -3.5986803
  },
  {
    "name": "Restaurante Arrayanes",
    "topic": "1,472 African, Moroccan",
    "rating": 4.4,
    "city": "Granada",
    "address": "Arrayanes, Cuesta de Marañas, Albaicín Bajo, Albaicín, Granada, Comarca de la Vega de Granada, Granada, Andalucía, 18010, España",
    "lat": 37.1781507,
    "lon": -3.5968602
  },
  {
    "name": "Restaurante Parador de Granada",
    "topic": "868 Spanish, Healthy",
    "rating": 4.1,
    "city": "Granada",
    "address": "El Parador, Carretera de Cúllar a Puebla de Don Fadrique por Huéscar, San Miguel - Puente de Hierro, Galera, Comarca de Huéscar, Granada, Andalucía, 18840, España",
    "lat": 37.755645,
    "lon": -2.5521968
  },
  {
    "name": "Avila II Bar Tapas",
    "topic": "608 Bar, Mediterranean",
    "rating": 4.5,
    "city": "Granada",
    "address": ""
  },
  {
    "name": "Ruta del Azafrán",
    "topic": "1,521 International, Mediterranean",
    "rating": 4.2,
    "city": "Granada",
    "address": "Ruta del Azafrán, 1, Paseo del Padre Manjón, San Pedro, Albaicín, Granada, Comarca de la Vega de Granada, Granada, Andalucía, 18010, España",
    "lat": 37.1788448,
    "lon": -3.5902914
  },
  {
    "name": "Bar Casa Julio",
    "topic": "855 Bar, Mediterranean",
    "rating": 4.4,
    "city": "Granada",
    "address": "Bar Casa Julio, Plaza de Bib-Rambla, Sagrario, Centro - Sagrario, Centro, Granada, Comarca de la Vega de Granada, Granada, Andalucía, 18001, España",
    "lat": 37.1755791,
    "lon": -3.6001001
  },
  {
    "name": "Bar Los Diamantes II",
    "topic": "802 Bar, Seafood",
    "rating": 4.4,
    "city": "Granada",
    "address": "Los Diamantes II, 2, Calle Virgen del Rosario, La Manigua, San Matías - Realejo, Centro, Granada, Comarca de la Vega de Granada, Granada, Andalucía, 18009, España",
    "lat": 37.1726272,
    "lon": -3.596128
  },
  {
    "name": "Taberna malvasía",
    "topic": "309 Mediterranean, European",
    "rating": 4.6,
    "city": "Granada",
    "address": "Taberna Malvasía, 10, Calle Virgen del Rosario, La Manigua, San Matías - Realejo, Centro, Granada, Comarca de la Vega de Granada, Granada, Andalucía, 18009, España",
    "lat": 37.1727459,
    "lon": -3.5962939
  },
  {
    "name": "Los Diamantes - Plaza Nueva",
    "topic": "2,044 Spanish",
    "rating": 4.2,
    "city": "Granada",
    "address": "Los Diamantes, 13, Plaza Nueva, La Almanzora, San Matías - Realejo, Centro, Granada, Comarca de la Vega de Granada, Granada, Andalucía, 18010, España",
    "lat": 37.1765964,
    "lon": -3.595953
  },
  {
    "name": "Rabo de Nube",
    "topic": "695 Mediterranean, European",
    "rating": 4.2,
    "city": "Granada",
    "address": "Rabo de Nube, 1, Paseo del Padre Manjón, San Pedro, Albaicín, Granada, Comarca de la Vega de Granada, Granada, Andalucía, 18010, España",
    "lat": 37.1788942,
    "lon": -3.5901061
  },
  {
    "name": "Mirador de Morayma",
    "topic": "1,010 Mediterranean, European",
    "rating": 4.1,
    "city": "Granada",
    "address": "Mirador de Morayma, 2, Calle Pianista García Carrillo, San Pedro, Albaicín, Granada, Comarca de la Vega de Granada, Granada, Andalucía, 18010, España",
    "lat": 37.1808972,
    "lon": -3.5895555
  },
  {
    "name": "Bar Aixa",
    "topic": "574 Bar, Mediterranean",
    "rating": 4.2,
    "city": "Granada",
    "address": "Bar Aixa, 5, Plaza Larga, Albaicín Alto, Albaicín, Granada, Comarca de la Vega de Granada, Granada, Andalucía, 18010, España",
    "lat": 37.1827193,
    "lon": -3.5931544
  },
  {
    "name": "Damasqueros",
    "topic": "919 International, Mediterranean",
    "rating": 4.5,
    "city": "Granada",
    "address": "Damasqueros, 3, Calle Damasqueros, El Mauror, San Matías - Realejo, Centro, Granada, Comarca de la Vega de Granada, Granada, Andalucía, 18009, España",
    "lat": 37.1744323,
    "lon": -3.5940748
  },
  {
    "name": "El Picoteo Casa Torcuato",
    "topic": "229 Mediterranean, Spanish",
    "rating": 4.6,
    "city": "Granada",
    "address": ""
  },
  {
    "name": "Sitarilla",
    "topic": "534 Bar, Mediterranean",
    "rating": 4.3,
    "city": "Granada",
    "address": "La Sitarilla, Calle San Miguel Alta, Barrio de la Magdalena, Centro - Sagrario, Centro, Granada, Comarca de la Vega de Granada, Granada, Andalucía, 18002, España",
    "lat": 37.1733955,
    "lon": -3.6036013
  },
  {
    "name": "Gloria Benedetta Italian food",
    "topic": "457 Italian, Pizza",
    "rating": 4.7,
    "city": "Granada",
    "address": ""
  },
  {
    "name": "Ossobuco Ristorante Granada",
    "topic": "195 Italian, Mediterranean",
    "rating": 4.5,
    "city": "Granada",
    "address": "Ristorante Ossobuco, 19, Calle Carrera del Darro, Albaicín Bajo, Albaicín, Granada, Comarca de la Vega de Granada, Granada, Andalucía, 18010, España",
    "lat": 37.1780772,
    "lon": -3.5936546
  },
  {
    "name": "Restaurante Jardines Alberto",
    "topic": "996 Mediterranean, European",
    "rating": 4.0,
    "city": "Granada",
    "address": "Jardines Alberto, Paseo del Generalife, Barranco del Abogado, San Matías - Realejo, Centro, Granada, Comarca de la Vega de Granada, Granada, Andalucía, 18009, España",
    "lat": 37.1741866,
    "lon": -3.5852181
  },
  {
    "name": "La Vinoteca",
    "topic": "1,406 Mediterranean, European",
    "rating": 4.4,
    "city": "Granada",
    "address": "La Vinoteca, Calle Joaquín Costa, Sagrario, Centro - Sagrario, Centro, Granada, Comarca de la Vega de Granada, Granada, Andalucía, 18010, España",
    "lat": 37.1769027,
    "lon": -3.5974512
  },
  {
    "name": "Masae",
    "topic": "564 Japanese, International",
    "rating": 4.6,
    "city": "Granada",
    "address": "Masae, 8, Calle General Narváez, Ronda, Granada, Comarca de la Vega de Granada, Granada, Andalucía, 18002, España",
    "lat": 37.1719857,
    "lon": -3.6035747
  },
  {
    "name": "Rosario Varela",
    "topic": "1,448 Bar, Mediterranean",
    "rating": 4.2,
    "city": "Granada",
    "address": "Rosario Varela, 10, Calle Varela, San Matías, San Matías - Realejo, Centro, Granada, Comarca de la Vega de Granada, Granada, Andalucía, 18009, España",
    "lat": 37.1728882,
    "lon": -3.5963634
  },
  {
    "name": "Wild Food",
    "topic": "379 European, Healthy",
    "rating": 4.3,
    "city": "Granada",
    "address": "Wild Food, 5, Plaza de Isabel la Católica, San Matías, San Matías - Realejo, Centro, Granada, Comarca de la Vega de Granada, Granada, Andalucía, 18009, España",
    "lat": 37.175414,
    "lon": -3.5972211
  },
  {
    "name": "La Niña Adela",
    "topic": "2,047 Mediterranean, European",
    "rating": 4.9,
    "city": "Ronda",
    "address": ""
  },
  {
    "name": "Tropicana",
    "topic": "3,994 International, Mediterranean",
    "rating": 4.9,
    "city": "Ronda",
    "address": "tropicana, Avenida de Málaga, Ronda, Serranía de Ronda, Málaga, Andalucía, 29400, España",
    "lat": 36.7483786,
    "lon": -5.1550045
  },
  {
    "name": "La Piconera Ronda",
    "topic": "199 Mediterranean, Spanish",
    "rating": 4.9,
    "city": "Ronda",
    "address": ""
  },
  {
    "name": "Pizzeria Da Vinci",
    "topic": "1,645 Italian, Pizza",
    "rating": 4.8,
    "city": "Ronda",
    "address": ""
  },
  {
    "name": "Tapa´s Bar Elias",
    "topic": "493 Bar, Mediterranean",
    "rating": 4.9,
    "city": "Ronda",
    "address": ""
  },
  {
    "name": "KÜTRAL",
    "topic": "283 Steakhouse, Grill",
    "rating": 4.9,
    "city": "Ronda",
    "address": ""
  },
  {
    "name": "Taberna Quinto Tramo",
    "topic": "1,462 Bar, Mediterranean",
    "rating": 4.8,
    "city": "Ronda",
    "address": ""
  },
  {
    "name": "Siempre Igual",
    "topic": "1,739 Mediterranean, European",
    "rating": 4.7,
    "city": "Ronda",
    "address": "Siempre Igual, Calle Jerez, Ronda, Serranía de Ronda, Málaga, Andalucía, 29400, España",
    "lat": 36.7450512,
    "lon": -5.1675649
  },
  {
    "name": "Las Bridas Ronda",
    "topic": "117 Steakhouse, Bar",
    "rating": 4.8,
    "city": "Ronda",
    "address": ""
  },
  {
    "name": "Puerta Grande",
    "topic": "1,445 Mediterranean, European",
    "rating": 4.6,
    "city": "Ronda",
    "address": "Puerta Grande, Calle Nueva, Ronda, Serranía de Ronda, Málaga, Andalucía, 29400, España",
    "lat": 36.7416245,
    "lon": -5.165582
  },
  {
    "name": "Restaurante Pizzería Savoy",
    "topic": "198 Steakhouse, Pizza",
    "rating": 4.8,
    "city": "Ronda",
    "address": ""
  },
  {
    "name": "Restaurante Bardal",
    "topic": "380 Mediterranean, European",
    "rating": 4.8,
    "city": "Ronda",
    "address": ""
  },
  {
    "name": "Restaurante Las Tablas",
    "topic": "515 Steakhouse, International",
    "rating": 4.8,
    "city": "Ronda",
    "address": ""
  },
  {
    "name": "Carrera Oficial",
    "topic": "203 Mediterranean, European",
    "rating": 4.7,
    "city": "Ronda",
    "address": ""
  },
  {
    "name": "Mi Manuela Taberna",
    "topic": "88 Mediterranean, Spanish",
    "rating": 4.9,
    "city": "Ronda",
    "address": "Taberna Mi Manuela, Plaza Carmen Abela, Ronda, Serranía de Ronda, Málaga, Andalucía, 29400, España",
    "lat": 36.7426131,
    "lon": -5.1638769
  },
  {
    "name": "La Abacería Ronda",
    "topic": "372 Mediterranean, Spanish",
    "rating": 4.8,
    "city": "Ronda",
    "address": "La Abacería, Calle Virgen de los Remedios, Ronda, Serranía de Ronda, Málaga, Andalucía, 29400, España",
    "lat": 36.7414066,
    "lon": -5.164741
  },
  {
    "name": "La Barfina Ronda",
    "topic": "450 Mediterranean, Spanish",
    "rating": 4.8,
    "city": "Ronda",
    "address": ""
  },
  {
    "name": "Panorámico Restaurant",
    "topic": "578 Mediterranean, Spanish",
    "rating": 4.6,
    "city": "Ronda",
    "address": ""
  },
  {
    "name": "Al-Zahrà Arabian Food",
    "topic": "159 Moroccan, Mediterranean",
    "rating": 4.8,
    "city": "Ronda",
    "address": ""
  },
  {
    "name": "El Zucio",
    "topic": "329 Mediterranean, European",
    "rating": 4.6,
    "city": "Ronda",
    "address": "El Zucio, Plaza Ruedo Alameda, Ronda, Serranía de Ronda, Málaga, Andalucía, 29400, España",
    "lat": 36.7334183,
    "lon": -5.1646663
  },
  {
    "name": "Pizzeria Michelangelo",
    "topic": "393 Italian, Pizza",
    "rating": 4.5,
    "city": "Ronda",
    "address": ""
  },
  {
    "name": "Taberna El Almacen",
    "topic": "552 Mediterranean, European",
    "rating": 4.6,
    "city": "Ronda",
    "address": ""
  },
  {
    "name": "Restaurante Casa María",
    "topic": "4,139 Mediterranean, European",
    "rating": 4.7,
    "city": "Ronda",
    "address": "Casa Maria, Plaza Ruedo Alameda, Ronda, Serranía de Ronda, Málaga, Andalucía, 29400, España",
    "lat": 36.7338056,
    "lon": -5.1651077
  },
  {
    "name": "Carmen La De Ronda",
    "topic": "632 Mediterranean, European",
    "rating": 4.5,
    "city": "Ronda",
    "address": "Mesón Carmen la de Ronda, Plaza Duquesa de Parcent, Ronda, Serranía de Ronda, Málaga, Andalucía, 29400, España",
    "lat": 36.7371931,
    "lon": -5.16555
  },
  {
    "name": "Restaurante Pedro Romero",
    "topic": "881 Mediterranean, Spanish",
    "rating": 4.3,
    "city": "Ronda",
    "address": "Pedro Romero, 18, Calle Virgen de la Paz, Ronda, Serranía de Ronda, Málaga, Andalucía, 29400, España",
    "lat": 36.7427684,
    "lon": -5.1666384
  },
  {
    "name": "Casa Mateos",
    "topic": "490 Mediterranean, European",
    "rating": 4.5,
    "city": "Ronda",
    "address": "casa mateos, Calle Virgen de la Paz, Ronda, Serranía de Ronda, Málaga, Andalucía, 29400, España",
    "lat": 36.7449072,
    "lon": -5.1674921
  },
  {
    "name": "Meson El Sacristan",
    "topic": "1,484 Mediterranean, Spanish",
    "rating": 4.5,
    "city": "Ronda",
    "address": "Mesón El Sacristán, 14, Plaza Duquesa de Parcent, Ronda, Serranía de Ronda, Málaga, Andalucía, 29400, España",
    "lat": 36.7375527,
    "lon": -5.1651532
  },
  {
    "name": "Tabanco Los Arcos",
    "topic": "501 Bar, Mediterranean",
    "rating": 4.6,
    "city": "Ronda",
    "address": "Tabanco Los Arcos, 6, Calle Armiñán, Ronda, Serranía de Ronda, Málaga, Andalucía, 29400, España",
    "lat": 36.7401111,
    "lon": -5.165717
  },
  {
    "name": "La Picarona",
    "topic": "124 Steakhouse, Mediterranean",
    "rating": 4.8,
    "city": "Ronda",
    "address": ""
  },
  {
    "name": "El Lechuguita",
    "topic": "1,728 Bar, Mediterranean",
    "rating": 4.5,
    "city": "Ronda",
    "address": "El Lechuguita, Calle Virgen de los Remedios, Ronda, Serranía de Ronda, Málaga, Andalucía, 29400, España",
    "lat": 36.7414513,
    "lon": -5.164662
  },
  {
    "name": "Restaurante Azahar",
    "topic": "654 Mediterranean, Spanish",
    "rating": 4.5,
    "city": "Ronda",
    "address": ""
  },
  {
    "name": "La Taberna",
    "topic": "1,713 Mediterranean, Spanish",
    "rating": 4.5,
    "city": "Ronda",
    "address": "La Taberna, 8, Plaza del Socorro, Ronda, Serranía de Ronda, Málaga, Andalucía, 29400, España",
    "lat": 36.7430016,
    "lon": -5.1659647
  },
  {
    "name": "Entrevinos",
    "topic": "632 Mediterranean, Spanish",
    "rating": 4.5,
    "city": "Ronda",
    "address": ""
  },
  {
    "name": "Bodeguita El Coto",
    "topic": "390 Bar, Mediterranean",
    "rating": 4.4,
    "city": "Ronda",
    "address": "Bodeguita El Coto, Calle Virgen de los Remedios, Ronda, Serranía de Ronda, Málaga, Andalucía, 29400, España",
    "lat": 36.7418029,
    "lon": -5.1649908
  },
  {
    "name": "Tragatá | Benito Gómez | Ronda",
    "topic": "1,519 Mediterranean, European",
    "rating": 4.3,
    "city": "Ronda",
    "address": ""
  },
  {
    "name": "Restaurante Las Maravillas",
    "topic": "2,376 Spanish",
    "rating": 4.5,
    "city": "Ronda",
    "address": "Las Maravillas, 12, Carrera Espinel, Ronda, Serranía de Ronda, Málaga, Andalucía, 29400, España",
    "lat": 36.7422766,
    "lon": -5.1660108
  },
  {
    "name": "Gastro-bar Mk",
    "topic": "135 Mediterranean, European",
    "rating": 4.6,
    "city": "Ronda",
    "address": ""
  },
  {
    "name": "Restaurante Albacara",
    "topic": "777 Mediterranean, European",
    "rating": 4.3,
    "city": "Ronda",
    "address": "Albacara, Calle Tenorio, Ronda, Serranía de Ronda, Málaga, Andalucía, 29400, España",
    "lat": 36.7396871,
    "lon": -5.1660036
  },
  {
    "name": "Los Cazadores",
    "topic": "339 Mediterranean, Seafood",
    "rating": 4.4,
    "city": "Ronda",
    "address": ""
  },
  {
    "name": "Café Restaurante La Vendimya",
    "topic": "70 Bar, Cafe",
    "rating": 4.9,
    "city": "Ronda",
    "address": ""
  },
  {
    "name": "Bodega San Francisco",
    "topic": "1,184 Mediterranean",
    "rating": 4.1,
    "city": "Ronda",
    "address": "Bodega San Francisco, 32, Plaza Ruedo Alameda, Ronda, Serranía de Ronda, Málaga, Andalucía, 29400, España",
    "lat": 36.7340335,
    "lon": -5.1650165
  },
  {
    "name": "Bodega El Socorro",
    "topic": "79 Spanish",
    "rating": 4.8,
    "city": "Ronda",
    "address": "Bodega El Socorro, 4, Calle Molino, Ronda, Serranía de Ronda, Málaga, Andalucía, 29400, España",
    "lat": 36.7435789,
    "lon": -5.1658555
  },
  {
    "name": "Toro Tapas",
    "topic": "1,006 Mediterranean, European",
    "rating": 4.3,
    "city": "Ronda",
    "address": "Toro Tapas, 7, Carrera Espinel, Ronda, Serranía de Ronda, Málaga, Andalucía, 29400, España",
    "lat": 36.7424324,
    "lon": -5.1659531
  },
  {
    "name": "Bifana Bar",
    "topic": "188 Bars & Pubs, Bar",
    "rating": 4.6,
    "city": "Ronda",
    "address": "Bifana Bar, Calle Comandante Salvador Carrasco, Ronda, Serranía de Ronda, Málaga, Andalucía, 29400, España",
    "lat": 36.745576,
    "lon": -5.1649745
  },
  {
    "name": "Bar Casa Clemente",
    "topic": "304 Mediterranean, European",
    "rating": 4.3,
    "city": "Ronda",
    "address": ""
  },
  {
    "name": "Sensur Gastrobar",
    "topic": "855 Mediterranean, Spanish",
    "rating": 4.8,
    "city": "Ronda",
    "address": ""
  },
  {
    "name": "Bar Restaurante Casa Lourdes",
    "topic": "100 Mediterranean, European",
    "rating": 4.8,
    "city": "Ronda",
    "address": ""
  },
  {
    "name": "La Vita e Bella",
    "topic": "404 Italian, Pizza",
    "rating": 4.2,
    "city": "Ronda",
    "address": ""
  },
  {
    "name": "Brucho",
    "topic": "60 Mediterranean, European",
    "rating": 4.7,
    "city": "Ronda",
    "address": ""
  },
  {
    "name": "Kiosko De La Alameda",
    "topic": "58 Bars & Pubs, Mediterranean",
    "rating": 4.9,
    "city": "Ronda",
    "address": ""
  },
  {
    "name": "Abades Ronda",
    "topic": "409 Mediterranean, European",
    "rating": 4.1,
    "city": "Ronda",
    "address": "Abades, 11, Calle Recogidas, Barrio de la Magdalena, Fígares, Ronda, Granada, Comarca de la Vega de Granada, Granada, Andalucía, 18005, España",
    "lat": 37.1724891,
    "lon": -3.6013279
  },
  {
    "name": "Il Forno a Legna",
    "topic": "395 Italian, Pizza",
    "rating": 4.1,
    "city": "Ronda",
    "address": ""
  },
  {
    "name": "Bodeguita El Buen Comer",
    "topic": "52 Bars & Pubs, Mediterranean",
    "rating": 4.7,
    "city": "Ronda",
    "address": ""
  },
  {
    "name": "Bar El Convento",
    "topic": "134 Mediterranean, Spanish",
    "rating": 4.6,
    "city": "Ronda",
    "address": "Bar El convento, Calle San Francisco de Asís, Rosalejo, Ronda, Serranía de Ronda, Málaga, Andalucía, 29400, España",
    "lat": 36.7292515,
    "lon": -5.1651902
  },
  {
    "name": "Bombay Spice",
    "topic": "26 Indian, Asian",
    "rating": 4.9,
    "city": "Ronda",
    "address": ""
  },
  {
    "name": "Pura Cepa Ronda",
    "topic": "51 Mediterranean, European",
    "rating": 4.6,
    "city": "Ronda",
    "address": ""
  },
  {
    "name": "Las Castañuelas",
    "topic": "122 Mediterranean, Spanish",
    "rating": 4.4,
    "city": "Ronda",
    "address": ""
  },
  {
    "name": "Bar El Barrio",
    "topic": "30 Steakhouse, Barbecue",
    "rating": 5.0,
    "city": "Ronda",
    "address": "El Barrio, Calle Arabial, Ronda, Granada, Comarca de la Vega de Granada, Granada, Andalucía, 18003, España",
    "lat": 37.1799352,
    "lon": -3.6133724
  },
  {
    "name": "Restaurante Luciano",
    "topic": "58 Mediterranean, Spanish",
    "rating": 4.6,
    "city": "Ronda",
    "address": ""
  },
  {
    "name": "BAR RESTAURANTE LOS PUEBLOS",
    "topic": "24 Mediterranean, Spanish",
    "rating": 4.9,
    "city": "Ronda",
    "address": ""
  },
  {
    "name": "Mi Rinconcito",
    "topic": "112 Mediterranean, Spanish",
    "rating": 4.2,
    "city": "Ronda",
    "address": "Mi Rinconcito, Plaza Ruedo Alameda, Ronda, Serranía de Ronda, Málaga, Andalucía, 29400, España",
    "lat": 36.7343847,
    "lon": -5.164307
  },
  {
    "name": "El Rincon de la Manzanilla",
    "topic": "154 Bar, Mediterranean",
    "rating": 4.4,
    "city": "Ronda",
    "address": "El rincón de la manzanilla, Calle Virgen de los Remedios, Ronda, Serranía de Ronda, Málaga, Andalucía, 29400, España",
    "lat": 36.7423112,
    "lon": -5.1650975
  },
  {
    "name": "Sabor Andaluz",
    "topic": "52 Seafood, Mediterranean",
    "rating": 4.5,
    "city": "Ronda",
    "address": ""
  },
  {
    "name": "Cerveceria Meson Rondeno",
    "topic": "218 Mediterranean, European",
    "rating": 4.1,
    "city": "Ronda",
    "address": ""
  },
  {
    "name": "Tape-Art",
    "topic": "166 Bar, Mediterranean",
    "rating": 4.3,
    "city": "Ronda",
    "address": ""
  },
  {
    "name": "La Cascada Restaurante & Bar",
    "topic": "213 International, Mediterranean",
    "rating": 4.7,
    "city": "Ronda",
    "address": ""
  },
  {
    "name": "Bar Restaurante La Bodega",
    "topic": "125 Mediterranean, Spanish",
    "rating": 4.3,
    "city": "Ronda",
    "address": ""
  },
  {
    "name": "Bar La Plaza",
    "topic": "21 Mediterranean, Spanish",
    "rating": 5.0,
    "city": "Ronda",
    "address": "Bar La Plaza, Ronda de Verasol, Vera, Almería, Andalucía, 04620, España",
    "lat": 37.2425219,
    "lon": -1.8584931
  },
  {
    "name": "Cerveceria El Bandolero",
    "topic": "163 Bars & Pubs, Mediterranean",
    "rating": 4.3,
    "city": "Ronda",
    "address": ""
  },
  {
    "name": "Los Caracoles",
    "topic": "150 Bars & Pubs, Mediterranean",
    "rating": 4.4,
    "city": "Ronda",
    "address": "Los Caracoles, Calle Comandante Salvador Carrasco, Ronda, Serranía de Ronda, Málaga, Andalucía, 29400, España",
    "lat": 36.7460291,
    "lon": -5.1652644
  },
  {
    "name": "Camping El Sur",
    "topic": "143 Spanish",
    "rating": 4.2,
    "city": "Ronda",
    "address": "El Sur, A-369, Rosalejo, Ronda, Serranía de Ronda, Málaga, Andalucía, 29400, España",
    "lat": 36.7210648,
    "lon": -5.1722783
  },
  {
    "name": "Bar Antonio",
    "topic": "97 Bar, Mediterranean",
    "rating": 4.1,
    "city": "Ronda",
    "address": "Antonio Pérez Copas, 2, Calle Pintor Rodríguez Acosta, Ronda, Granada, Comarca de la Vega de Granada, Granada, Andalucía, 18001, España",
    "lat": 37.1782296,
    "lon": -3.608041
  },
  {
    "name": "Emecuatro Bar",
    "topic": "32 Bar, Mediterranean",
    "rating": 4.9,
    "city": "Ronda",
    "address": ""
  },
  {
    "name": "Akelarre (fuego Y Tierra)",
    "topic": "19 Spanish",
    "rating": 4.7,
    "city": "Ronda",
    "address": ""
  },
  {
    "name": "Gloria Bendita",
    "topic": "38 Mediterranean, Spanish",
    "rating": 4.5,
    "city": "Ronda",
    "address": ""
  },
  {
    "name": "BBT otra Ronda",
    "topic": "43 Mediterranean, Spanish",
    "rating": 4.6,
    "city": "Ronda",
    "address": ""
  },
  {
    "name": "New Street Grill, Ronda",
    "topic": "39 Steakhouse, Seafood",
    "rating": 4.7,
    "city": "Ronda",
    "address": ""
  },
  {
    "name": "Elpere Tapas",
    "topic": "18 Bar, Mediterranean",
    "rating": 4.8,
    "city": "Ronda",
    "address": ""
  },
  {
    "name": "Taperia La Flamenka",
    "topic": "54 Mediterranean, Spanish",
    "rating": 4.3,
    "city": "Ronda",
    "address": ""
  },
  {
    "name": "Bar los Capeas",
    "topic": "63 Mediterranean, European",
    "rating": 4.0,
    "city": "Ronda",
    "address": ""
  },
  {
    "name": "El Castaño",
    "topic": "39 Spanish",
    "rating": 4.4,
    "city": "Ronda",
    "address": "Bar Cafetería El Castaño, Avenida Martínez Astein, Ronda, Serranía de Ronda, Málaga, Andalucía, 29400, España",
    "lat": 36.7458812,
    "lon": -5.1602108
  },
  {
    "name": "Restaurante Alhambra",
    "topic": "27 Mediterranean, European",
    "rating": 4.3,
    "city": "Ronda",
    "address": ""
  },
  {
    "name": "Restaurante La Cuadra Ronda",
    "topic": "92 Spanish, Grill",
    "rating": 4.1,
    "city": "Ronda",
    "address": ""
  },
  {
    "name": "Restaurante Sol y Sombra",
    "topic": "105 Mediterranean, European",
    "rating": 4.0,
    "city": "Ronda",
    "address": ""
  },
  {
    "name": "Cafe Tapas A Tu Vera",
    "topic": "168 Mediterranean, European",
    "rating": 4.0,
    "city": "Ronda",
    "address": ""
  },
  {
    "name": "Bar La Alegria",
    "topic": "30 Bar, European",
    "rating": 4.9,
    "city": "Ronda",
    "address": ""
  },
  {
    "name": "La Taska",
    "topic": "20 Mediterranean, Spanish",
    "rating": 4.7,
    "city": "Ronda",
    "address": ""
  },
  {
    "name": "Bodeguita Ramos",
    "topic": "28 Mediterranean, Spanish",
    "rating": 4.6,
    "city": "Ronda",
    "address": ""
  },
  {
    "name": "La Merendera",
    "topic": "8 Spanish",
    "rating": 5.0,
    "city": "Ronda",
    "address": ""
  },
  {
    "name": "PizzaUtopia",
    "topic": "30 Italian, Pizza",
    "rating": 4.4,
    "city": "Ronda",
    "address": ""
  },
  {
    "name": "La Fonda Restaurante",
    "topic": "International, Mediterranean",
    "rating": 4.5,
    "city": "Marbella",
    "address": ""
  },
  {
    "name": "Boho Club Restaurant",
    "topic": "International, Mediterranean",
    "rating": 4.2,
    "city": "Marbella",
    "address": ""
  },
  {
    "name": "Pasticcio Marbella",
    "topic": "miSan Pedro de AlcantaraItalian, Neapolitan",
    "rating": 4.9,
    "city": "Marbella",
    "address": "Pasticcio, Calle 19A, Guadalmina Baja, Guadalmina, San Pedro Alcántara, Marbella, Costa del Sol Occidental, Málaga, Andalucía, 29678, España",
    "lat": 36.4745322,
    "lon": -5.002132
  },
  {
    "name": "Calma by Kopparberg",
    "topic": "Mediterranean, Spanish",
    "rating": 4.9,
    "city": "Marbella",
    "address": ""
  },
  {
    "name": "Cascada Cocina & Bar",
    "topic": "International, Barbecue",
    "rating": 4.8,
    "city": "Marbella",
    "address": "Cascada Cocina & Bar, Camino de Puerto Rico, Sierramar, Marbella, Costa del Sol Occidental, Málaga, Andalucía, 29601, España",
    "lat": 36.5302609,
    "lon": -4.885388
  },
  {
    "name": "Yabaof",
    "topic": "Lebanese, Healthy",
    "rating": 4.9,
    "city": "Marbella",
    "address": ""
  },
  {
    "name": "Mini India Elviria",
    "topic": "miElviriaIndian, Balti",
    "rating": 4.8,
    "city": "Marbella",
    "address": ""
  },
  {
    "name": "Timonel Marbella",
    "topic": "International, Mediterranean",
    "rating": 4.8,
    "city": "Marbella",
    "address": ""
  },
  {
    "name": "Gourmet Burger Room",
    "topic": "American, International",
    "rating": 4.7,
    "city": "Marbella",
    "address": "Gourmet Burger Room, 18, Avenida Antonio Belón, Casco antiguo, Marbella, Costa del Sol Occidental, Málaga, Andalucía, 29602, España",
    "lat": 36.5078651,
    "lon": -4.8890419
  },
  {
    "name": "Pizzeria Pacman Marbella",
    "topic": "Italian, Pizza",
    "rating": 4.9,
    "city": "Marbella",
    "address": ""
  },
  {
    "name": "Box Kitchen Marbella",
    "topic": "miPuerto BanusCafe, Mediterranean",
    "rating": 4.9,
    "city": "Marbella",
    "address": ""
  },
  {
    "name": "Angus Marbella",
    "topic": "Steakhouse",
    "rating": 4.7,
    "city": "Marbella",
    "address": "Angus, Avenida Duque de Ahumada, Casco antiguo, Marbella, Costa del Sol Occidental, Málaga, Andalucía, 29602, España",
    "lat": 36.5071691,
    "lon": -4.8885371
  },
  {
    "name": "Restaurante Playa Europa",
    "topic": "Seafood, Mediterranean",
    "rating": 4.7,
    "city": "Marbella",
    "address": ""
  },
  {
    "name": "Koi Marbella",
    "topic": "Japanese, Peruvian",
    "rating": 4.8,
    "city": "Marbella",
    "address": ""
  },
  {
    "name": "Mumbai City Indian Restaurant",
    "topic": "miNueva AndaluciaIndian",
    "rating": 4.8,
    "city": "Marbella",
    "address": ""
  },
  {
    "name": "El Txoco De Luis Salinero",
    "topic": "miPuerto BanusMediterranean, European",
    "rating": 4.7,
    "city": "Marbella",
    "address": ""
  },
  {
    "name": "La Pizza di Andre",
    "topic": "Italian, Pizza",
    "rating": 4.8,
    "city": "Marbella",
    "address": ""
  },
  {
    "name": "Nativo Restaurant",
    "topic": "Mediterranean, Spanish",
    "rating": 4.9,
    "city": "Marbella",
    "address": ""
  },
  {
    "name": "La Bodega Del Cantinero",
    "topic": "miSan Pedro de AlcantaraMediterranean, European",
    "rating": 4.8,
    "city": "Marbella",
    "address": ""
  },
  {
    "name": "Gulzar Indian Restaurant Marbella",
    "topic": "Indian, Balti",
    "rating": 4.6,
    "city": "Marbella",
    "address": ""
  },
  {
    "name": "Restaurante La Bocana",
    "topic": "miPuerto BanusSeafood, Mediterranean",
    "rating": 4.7,
    "city": "Marbella",
    "address": "La Bocana, Calle de Benabola, Marbella, Costa del Sol Occidental, Málaga, Andalucía, 29660, España",
    "lat": 36.4847182,
    "lon": -4.954518
  },
  {
    "name": "Alma de Papagayo",
    "topic": "miElviriaInternational, European",
    "rating": 4.9,
    "city": "Marbella",
    "address": ""
  },
  {
    "name": "Bistro Paloma",
    "topic": "Mediterranean, European",
    "rating": 4.7,
    "city": "Marbella",
    "address": ""
  },
  {
    "name": "Kanaloa",
    "topic": "Mediterranean, Spanish",
    "rating": 4.6,
    "city": "Marbella",
    "address": ""
  },
  {
    "name": "Mia Cafe",
    "topic": "Cafe, Mediterranean",
    "rating": 4.6,
    "city": "Marbella",
    "address": "Mia Cafe, Plaza Puente de Ronda, Casco antiguo, Marbella, Costa del Sol Occidental, Málaga, Andalucía, 29601, España",
    "lat": 36.5108811,
    "lon": -4.8852305
  },
  {
    "name": "El Boquerón Restaurant",
    "topic": "Mediterranean, Spanish",
    "rating": 4.6,
    "city": "Marbella",
    "address": ""
  },
  {
    "name": "Areia Marbella",
    "topic": "Mediterranean, Spanish",
    "rating": 4.7,
    "city": "Marbella",
    "address": ""
  },
  {
    "name": "Restaurante Back",
    "topic": "International, Mediterranean",
    "rating": 4.6,
    "city": "Marbella",
    "address": "Back, 8, Calle de Pablo Casal, Barrio Alto, Marbella, Costa del Sol Occidental, Málaga, Andalucía, 29602, España",
    "lat": 36.509135,
    "lon": -4.8945618
  },
  {
    "name": "El Candil de San Pedro",
    "topic": "miSan Pedro de AlcantaraBar, Mediterranean",
    "rating": 4.7,
    "city": "Marbella",
    "address": "El Candil, Calle Andalucía, El Ingenio, Guadalmina, San Pedro Alcántara, Marbella, Costa del Sol Occidental, Málaga, Andalucía, 29670, España",
    "lat": 36.4826788,
    "lon": -4.9913453
  },
  {
    "name": "Al Minzah",
    "topic": "Moroccan, Middle Eastern",
    "rating": 4.7,
    "city": "Marbella",
    "address": ""
  },
  {
    "name": "ERRE & Urrechu",
    "topic": "Steakhouse, Mediterranean",
    "rating": 4.6,
    "city": "Marbella",
    "address": ""
  },
  {
    "name": "El Patio De Mariscal",
    "topic": "Mediterranean, European",
    "rating": 4.6,
    "city": "Marbella",
    "address": "El Patio de Mariscal, Calle Virgen de los Dolores, Casco antiguo, Marbella, Costa del Sol Occidental, Málaga, Andalucía, 29601, España",
    "lat": 36.5109213,
    "lon": -4.8848168
  },
  {
    "name": "I was completely...Gem restaurant!!!!!!La Fonda Restaurante",
    "topic": "International, Mediterranean",
    "rating": 4.5,
    "city": "Marbella",
    "address": ""
  },
  {
    "name": "Restaurante Garum",
    "topic": "Mediterranean, European",
    "rating": 4.5,
    "city": "Marbella",
    "address": "Garum, Avenida de la Fontanilla, Marbella, Costa del Sol Occidental, Málaga, Andalucía, 29602, España",
    "lat": 36.5075444,
    "lon": -4.8944743
  },
  {
    "name": "Jacks Smokehouse",
    "topic": "miPuerto BanusAmerican, Bar",
    "rating": 4.3,
    "city": "Marbella",
    "address": ""
  },
  {
    "name": "Tempora",
    "topic": "International, Mediterranean",
    "rating": 4.7,
    "city": "Marbella",
    "address": ""
  },
  {
    "name": "The Orange Tree",
    "topic": "Mediterranean, European",
    "rating": 4.6,
    "city": "Marbella",
    "address": ""
  },
  {
    "name": "Cafe Yanx",
    "topic": "miNueva AndaluciaMexican, American",
    "rating": 4.5,
    "city": "Marbella",
    "address": "Yanx, Centro Plaza, Aldea Blanca, San Pedro Alcántara, Marbella, Costa del Sol Occidental, Málaga, Andalucía, 29660, España",
    "lat": 36.4931667,
    "lon": -4.959847
  },
  {
    "name": "Buenos Aires Steakhouse",
    "topic": "Steakhouse, Barbecue",
    "rating": 4.7,
    "city": "Marbella",
    "address": ""
  },
  {
    "name": "La Ribera Restaurante",
    "topic": "Mediterranean, European",
    "rating": 4.7,
    "city": "Marbella",
    "address": ""
  },
  {
    "name": "The Harbour Bar & Restaurant Marbella",
    "topic": "Seafood, International",
    "rating": 4.6,
    "city": "Marbella",
    "address": ""
  },
  {
    "name": "Origen Asador Argentino",
    "topic": "Steakhouse, Barbecue",
    "rating": 4.5,
    "city": "Marbella",
    "address": ""
  },
  {
    "name": "Garnacha",
    "topic": "International, Mediterranean",
    "rating": 4.5,
    "city": "Marbella",
    "address": ""
  },
  {
    "name": "Restaurante Paellas y Mas",
    "topic": "Mediterranean, European",
    "rating": 4.5,
    "city": "Marbella",
    "address": ""
  },
  {
    "name": "Ancora Restaurant",
    "topic": "Mediterranean, European",
    "rating": 4.7,
    "city": "Marbella",
    "address": ""
  },
  {
    "name": "Ta-Kumi Marbella",
    "topic": "Japanese, Sushi",
    "rating": 4.5,
    "city": "Marbella",
    "address": "Ta-Kumi, Calle de Pablo Casal, Alhambra del Mar, Marbella, Costa del Sol Occidental, Málaga, Andalucía, 29602, España",
    "lat": 36.509076,
    "lon": -4.8966251
  },
  {
    "name": "Casa Eladio",
    "topic": "Mediterranean, European",
    "rating": 4.5,
    "city": "Marbella",
    "address": ""
  },
  {
    "name": "Arco Tapas Bar",
    "topic": "Mediterranean, European",
    "rating": 4.6,
    "city": "Marbella",
    "address": "Arco Tapas Bar, 16, Calle Peral, Casco antiguo, Marbella, Costa del Sol Occidental, Málaga, Andalucía, 29601, España",
    "lat": 36.5106019,
    "lon": -4.8862197
  },
  {
    "name": "La Ola",
    "topic": "Seafood, Mediterranean",
    "rating": 4.5,
    "city": "Marbella",
    "address": ""
  },
  {
    "name": "Sisters restaurant",
    "topic": "International, Mediterranean",
    "rating": 4.7,
    "city": "Marbella",
    "address": ""
  },
  {
    "name": "Maa Indian Cuisine",
    "topic": "miNueva AndaluciaIndian, Asian",
    "rating": 4.7,
    "city": "Marbella",
    "address": ""
  },
  {
    "name": "Trattoria L'Impronta",
    "topic": "miSan Pedro de AlcantaraItalian, European",
    "rating": 4.6,
    "city": "Marbella",
    "address": ""
  },
  {
    "name": "Jaipur",
    "topic": "Indian, Balti",
    "rating": 4.4,
    "city": "Marbella",
    "address": "Jaipur, 3, Avenida Duque de Ahumada, Casco antiguo, Marbella, Costa del Sol Occidental, Málaga, Andalucía, 29602, España",
    "lat": 36.5070682,
    "lon": -4.8857665
  },
  {
    "name": "Bombay Grill Indian restaurant",
    "topic": "miSan Pedro de AlcantaraIndian, Asian",
    "rating": 4.7,
    "city": "Marbella",
    "address": ""
  },
  {
    "name": "Restaurante Messina",
    "topic": "International, Mediterranean",
    "rating": 4.6,
    "city": "Marbella",
    "address": ""
  },
  {
    "name": "Bar El Estrecho",
    "topic": "Bar, Mediterranean",
    "rating": 4.4,
    "city": "Marbella",
    "address": "El Estrecho, 12, Calle de San Lazaro, Casco antiguo, Marbella, Costa del Sol Occidental, Málaga, Andalucía, 29600, España",
    "lat": 36.5097676,
    "lon": -4.8859494
  },
  {
    "name": "La Habana Lounge",
    "topic": "miPuerto BanusSeafood, International",
    "rating": 4.5,
    "city": "Marbella",
    "address": "La Habana Lounge, Calle de Benabola, Marbella, Costa del Sol Occidental, Málaga, Andalucía, 29660, España",
    "lat": 36.4851204,
    "lon": -4.9554839
  },
  {
    "name": "Restaurante Da Sergio",
    "topic": "Italian, Seafood",
    "rating": 4.5,
    "city": "Marbella",
    "address": "Restaurante da Sergio, Avenida Vistamar, El Rosario, Rícmar, Marbella, Costa del Sol Occidental, Málaga, Andalucía, 29604, España",
    "lat": 36.4968848,
    "lon": -4.8049805
  },
  {
    "name": "Taj Mahal Marbella",
    "topic": "miNueva AndaluciaIndian, Asian",
    "rating": 4.6,
    "city": "Marbella",
    "address": ""
  },
  {
    "name": "Chiringuito Tonys",
    "topic": "miElviriaSeafood, Mediterranean",
    "rating": 4.5,
    "city": "Marbella",
    "address": ""
  },
  {
    "name": "Masala Elviria",
    "topic": "miElviriaIndian, Asian",
    "rating": 4.5,
    "city": "Marbella",
    "address": ""
  },
  {
    "name": "The Hogan Stand",
    "topic": "miSan Pedro de AlcantaraIrish, Bar",
    "rating": 4.5,
    "city": "Marbella",
    "address": ""
  },
  {
    "name": "Bar El Cordobes",
    "topic": "Seafood, Mediterranean",
    "rating": 4.4,
    "city": "Marbella",
    "address": ""
  },
  {
    "name": "Cibo Trattoria Marbella",
    "topic": "Italian, Pizza",
    "rating": 4.3,
    "city": "Marbella",
    "address": ""
  },
  {
    "name": "La Bodega del Mar",
    "topic": "Bar, Mediterranean",
    "rating": 4.4,
    "city": "Marbella",
    "address": ""
  },
  {
    "name": "Restaurante Alfredo",
    "topic": "miSan Pedro de AlcantaraMediterranean, Spanish",
    "rating": 4.2,
    "city": "Marbella",
    "address": "Alfredo, Calle Andalucía, El Ingenio, Guadalmina, San Pedro Alcántara, Marbella, Costa del Sol Occidental, Málaga, Andalucía, 29670, España",
    "lat": 36.4824857,
    "lon": -4.9914234
  },
  {
    "name": "Andala Marbella",
    "topic": "Mediterranean, Spanish",
    "rating": 4.9,
    "city": "Marbella",
    "address": ""
  },
  {
    "name": "4 Marbella",
    "topic": "Italian, Pizza",
    "rating": 4.8,
    "city": "Marbella",
    "address": "Nueva Luz, 4, Calle Castilla, Salto del Agua, San Pedro Alcántara, Marbella, Costa del Sol Occidental, Málaga, Andalucía, 29670, España",
    "lat": 36.4903956,
    "lon": -4.9909909
  },
  {
    "name": "Restaurante Merendero Cristina",
    "topic": "miElviriaSeafood, Mediterranean",
    "rating": 4.2,
    "city": "Marbella",
    "address": "Merendero Cristina, Calle de las Nereidas, Urbanización Marbesa, Marbella, Costa del Sol Occidental, Málaga, Andalucía, 29604, España",
    "lat": 36.488422,
    "lon": -4.769246
  },
  {
    "name": "Los Farolillos",
    "topic": "miNueva AndaluciaItalian, Mediterranean",
    "rating": 4.5,
    "city": "Marbella",
    "address": ""
  },
  {
    "name": "Ichiban",
    "topic": "Japanese, Sushi",
    "rating": 4.4,
    "city": "Marbella",
    "address": "Ichiban, 22, Avenida Antonio Belón, Casco antiguo, Marbella, Costa del Sol Occidental, Málaga, Andalucía, 29602, España",
    "lat": 36.5078118,
    "lon": -4.889316
  },
  {
    "name": "Rococelli Ristorante",
    "topic": "miPuerto BanusItalian, Pizza",
    "rating": 4.3,
    "city": "Marbella",
    "address": ""
  },
  {
    "name": "Lekune",
    "topic": "Mediterranean, European",
    "rating": 4.3,
    "city": "Marbella",
    "address": "Lekune, Calle de Ramón Gómez de la Serna, Miraflores, Marbella, Costa del Sol Occidental, Málaga, Andalucía, 29602, España",
    "lat": 36.5098557,
    "lon": -4.8946135
  },
  {
    "name": "Karbó Asador Burger & Pizza Grill",
    "topic": "American, Steakhouse",
    "rating": 4.8,
    "city": "Marbella",
    "address": ""
  },
  {
    "name": "Casa Blanca",
    "topic": "Bar, Mediterranean",
    "rating": 4.2,
    "city": "Marbella",
    "address": "Casa Kobe, 7, Plaza de la Orquide, Aldea Blanca, San Pedro Alcántara, Marbella, Costa del Sol Occidental, Málaga, Andalucía, 29600, España",
    "lat": 36.4889148,
    "lon": -4.9643416
  },
  {
    "name": "Alberts Cabopino",
    "topic": "Mediterranean, European",
    "rating": 4.2,
    "city": "Marbella",
    "address": ""
  },
  {
    "name": "La Taberna del Pintxo Marbella",
    "topic": "International, Mediterranean",
    "rating": 4.2,
    "city": "Marbella",
    "address": "La Taberna del Pintxo, Avenida Miguel Cano, Casco antiguo, Marbella, Costa del Sol Occidental, Málaga, Andalucía, 29602, España",
    "lat": 36.5077476,
    "lon": -4.8871356
  },
  {
    "name": "Restaurante La Red",
    "topic": "Seafood, Mediterranean",
    "rating": 4.2,
    "city": "Marbella",
    "address": ""
  },
  {
    "name": "Restaurante Candela Marbella",
    "topic": "International, Spanish",
    "rating": 4.7,
    "city": "Marbella",
    "address": ""
  },
  {
    "name": "Brasserie El Marques",
    "topic": "miSan Pedro de AlcantaraDutch, Bar",
    "rating": 4.5,
    "city": "Marbella",
    "address": ""
  },
  {
    "name": "Restaurante El Lago",
    "topic": "International, Mediterranean",
    "rating": 4.4,
    "city": "Marbella",
    "address": "El Lago, Avenida de las Cumbres, Elviria del sol, Elviria, Rícmar, Marbella, Costa del Sol Occidental, Málaga, Andalucía, 29604, España",
    "lat": 36.5060942,
    "lon": -4.7794825
  },
  {
    "name": "Albert & Simon",
    "topic": "miSan Pedro de AlcantaraMediterranean, European",
    "rating": 4.5,
    "city": "Marbella",
    "address": ""
  },
  {
    "name": "Gold Puerto Banús",
    "topic": "miPuerto BanusItalian, Pizza",
    "rating": 4.3,
    "city": "Marbella",
    "address": ""
  },
  {
    "name": "Bar Altamirano",
    "topic": "Spanish, Seafood",
    "rating": 4.1,
    "city": "Marbella",
    "address": ""
  },
  {
    "name": "Sensations Sushi Bar",
    "topic": "miNueva AndaluciaJapanese, Sushi",
    "rating": 4.6,
    "city": "Marbella",
    "address": ""
  },
  {
    "name": "Zozoï",
    "topic": "French, Mediterranean",
    "rating": 4.3,
    "city": "Marbella",
    "address": "Zozoï, Calle Misericordia, Casco antiguo, Marbella, Costa del Sol Occidental, Málaga, Andalucía, 29601, España",
    "lat": 36.50964,
    "lon": -4.883304
  },
  {
    "name": "Luxalad Marbella",
    "topic": "International, European",
    "rating": 5.0,
    "city": "Marbella",
    "address": ""
  },
  {
    "name": "Hacienda Patagónica",
    "topic": "Steakhouse, Barbecue",
    "rating": 4.2,
    "city": "Marbella",
    "address": ""
  },
  {
    "name": "Maurya Indian Restaurant Sanpedro",
    "topic": "Indian",
    "rating": 4.9,
    "city": "Marbella",
    "address": ""
  },
  {
    "name": "Pizzeria Picasso",
    "topic": "miPuerto BanusItalian, Pizza",
    "rating": 4.1,
    "city": "Marbella",
    "address": "Pizzeria Picasso, Calle Ribera, Marbella, Costa del Sol Occidental, Málaga, Andalucía, 29660, España",
    "lat": 36.4873918,
    "lon": -4.95268
  },
  {
    "name": "Palo Cortado Puerto Banús",
    "topic": "miPuerto BanusBar, Mediterranean",
    "rating": 4.7,
    "city": "Marbella",
    "address": ""
  },
  {
    "name": "Fujiumi Elviria",
    "topic": "Japanese, Healthy",
    "rating": 4.7,
    "city": "Marbella",
    "address": "Fujiumi, Avenida Valeriano Rodríguez, Elviria, Marbella, Costa del Sol Occidental, Málaga, Andalucía, 29604, España",
    "lat": 36.4959433,
    "lon": -4.7763487
  },
  {
    "name": "SOUL Nueva Alcantara",
    "topic": "miSan Pedro de AlcantaraMediterranean, European",
    "rating": 4.7,
    "city": "Marbella",
    "address": ""
  },
  {
    "name": "Asador Puntaparrilla",
    "topic": "Steakhouse, Mediterranean",
    "rating": 4.8,
    "city": "Cadiz",
    "address": "Asador Puntaparrilla, Paseo Marítimo, Cortadura, Cádiz, Bahía de Cádiz, Cádiz, Andalucía, 11011, España",
    "lat": 36.4960588,
    "lon": -6.2718923
  },
  {
    "name": "Restaurante Puerta del Edén",
    "topic": "Moroccan, Mediterranean",
    "rating": 4.8,
    "city": "Cadiz",
    "address": ""
  },
  {
    "name": "Santa Catrina",
    "topic": "Mexican, Latin",
    "rating": 4.7,
    "city": "Cadiz",
    "address": ""
  },
  {
    "name": "La Mafia Se Sienta A La Mesa",
    "topic": "Italian, Mediterranean",
    "rating": 4.7,
    "city": "Cadiz",
    "address": "La mafia se sienta a la mesa, 5, Glorieta Ana Orantes, La Laguna, Cádiz, Bahía de Cádiz, Cádiz, Andalucía, 11010, España",
    "lat": 36.5060683,
    "lon": -6.2783459
  },
  {
    "name": "Fogón De Mariana",
    "topic": "Mediterranean, Spanish",
    "rating": 4.7,
    "city": "Cadiz",
    "address": "El Fogón de Mariana, Ronda de la Aurora Boreal, San Juan de Dios, Jerez de la Frontera, Campiña de Jerez, Cádiz, Andalucía, 11404, España",
    "lat": 36.6939226,
    "lon": -6.1599034
  },
  {
    "name": "Ancá Lidia",
    "topic": "Seafood, Mediterranean",
    "rating": 4.6,
    "city": "Cadiz",
    "address": ""
  },
  {
    "name": "Bar Nono",
    "topic": "Mediterranean, Spanish",
    "rating": 4.6,
    "city": "Cadiz",
    "address": "Bar nono, Calle Doctor Marañón, La Viña, Distrito 4, Cádiz, Bahía de Cádiz, Cádiz, Andalucía, 11002, España",
    "lat": 36.5331394,
    "lon": -6.3049231
  },
  {
    "name": "Sibuya Urban Sushi Bar Cádiz",
    "topic": "Japanese, Sushi",
    "rating": 4.7,
    "city": "Cadiz",
    "address": ""
  },
  {
    "name": "Nëbula Restaurante",
    "topic": "Italian, Pizza",
    "rating": 4.7,
    "city": "Cadiz",
    "address": "Nebula Gastrobar, 15, Calle Plocia, Santa María, Cádiz, Bahía de Cádiz, Cádiz, Andalucía, 11005, España",
    "lat": 36.5294315,
    "lon": -6.2910315
  },
  {
    "name": "Confusione Pizza & Bar",
    "topic": "Italian, Pizza",
    "rating": 4.6,
    "city": "Cadiz",
    "address": "Confusione Pizza & Bar, 21, Calle Buenos Aires, San Carlos, Cádiz, Bahía de Cádiz, Cádiz, Andalucía, 11002, España",
    "lat": 36.5360568,
    "lon": -6.2974367
  },
  {
    "name": "Sonámbulo",
    "topic": "Mediterranean, European",
    "rating": 4.4,
    "city": "Cadiz",
    "address": ""
  },
  {
    "name": "Bar La Ola",
    "topic": "Seafood, Mediterranean",
    "rating": 4.7,
    "city": "Cadiz",
    "address": "La Ola, Calle Calderón de la Barca, Carretera de la Carraca, San Fernando, Bahía de Cádiz, Cádiz, Andalucía, 11100, España",
    "lat": 36.4647055,
    "lon": -6.1990887
  },
  {
    "name": "Bar Mediterráneo",
    "topic": "Mediterranean, European",
    "rating": 4.5,
    "city": "Cadiz",
    "address": "Mediterráneo, 1, Plaza de Mina, San Francisco, Cádiz, Bahía de Cádiz, Cádiz, Andalucía, 11004, España",
    "lat": 36.5348943,
    "lon": -6.2974727
  },
  {
    "name": "A Plomo Cádiz",
    "topic": "Mediterranean, European",
    "rating": 4.5,
    "city": "Cadiz",
    "address": "Calle Plomo, Parque Comercial Europa, Jerez de la Frontera, Campiña de Jerez, Cádiz, Andalucía, 11405, España",
    "lat": 36.6993323,
    "lon": -6.1124762
  },
  {
    "name": "Restaurante EntreCastillos",
    "topic": "Mediterranean, Spanish",
    "rating": 4.6,
    "city": "Cadiz",
    "address": ""
  },
  {
    "name": "Casa Lazo",
    "topic": "Mediterranean, European",
    "rating": 4.4,
    "city": "Cadiz",
    "address": "Casa Lazo, Calle Barrié, San Francisco, Cádiz, Bahía de Cádiz, Cádiz, Andalucía, 11001, España",
    "lat": 36.5324711,
    "lon": -6.2969093
  },
  {
    "name": "Código de Barra",
    "topic": "Mediterranean, European",
    "rating": 4.6,
    "city": "Cadiz",
    "address": "Contraseña, 12 D, Plaza Candelaria, El Pópulo, Cádiz, Bahía de Cádiz, Cádiz, Andalucía, 11005, España",
    "lat": 36.5311327,
    "lon": -6.2956033
  },
  {
    "name": "La Mafia se Sienta a la Mesa - Cádiz Centro",
    "topic": "Italian, Mediterranean",
    "rating": 4.7,
    "city": "Cadiz",
    "address": ""
  },
  {
    "name": "La Candela",
    "topic": "Mediterranean, Spanish",
    "rating": 4.5,
    "city": "Cadiz",
    "address": "La Candela, 3, Calle Feduchy, El Pópulo, Cádiz, Bahía de Cádiz, Cádiz, Andalucía, 11001, España",
    "lat": 36.5318117,
    "lon": -6.2951914
  },
  {
    "name": "Sushi Panda Cádiz Avenida",
    "topic": "Japanese, Sushi",
    "rating": 4.5,
    "city": "Cadiz",
    "address": "Sushi Panda, Avenida Cayetano del Toro, La Laguna, Cádiz, Bahía de Cádiz, Cádiz, Andalucía, 11010, España",
    "lat": 36.5053599,
    "lon": -6.2762524
  },
  {
    "name": "La Veganesa",
    "topic": "Mediterranean, European",
    "rating": 4.6,
    "city": "Cadiz",
    "address": "La veganesa, 5, Calle San Antonio Abad, Santa María, Cádiz, Bahía de Cádiz, Cádiz, Andalucía, 11005, España",
    "lat": 36.5290559,
    "lon": -6.2933804
  },
  {
    "name": "Mesón Cumbres Mayores",
    "topic": "Spanish, Mediterranean",
    "rating": 4.3,
    "city": "Cadiz",
    "address": ""
  },
  {
    "name": "El Garbanzo Negro",
    "topic": "Mediterranean, European",
    "rating": 4.4,
    "city": "Cadiz",
    "address": ""
  },
  {
    "name": "Ventorrillo El Chato",
    "topic": "Mediterranean, Spanish",
    "rating": 4.3,
    "city": "Cadiz",
    "address": ""
  },
  {
    "name": "La Isleta de la Viña",
    "topic": "Mediterranean, European",
    "rating": 4.4,
    "city": "Cadiz",
    "address": "La Isleta de la Viña, 54, Calle Corralón de los Carros, La Viña, Distrito 4, Cádiz, Bahía de Cádiz, Cádiz, Andalucía, 11002, España",
    "lat": 36.5300599,
    "lon": -6.3030104
  },
  {
    "name": "Musalima",
    "topic": "Mediterranean, Fusion",
    "rating": 4.4,
    "city": "Cadiz",
    "address": "Musalima, Calle Brasil, Trille, Cádiz, Bahía de Cádiz, Cádiz, Andalucía, 11009, España",
    "lat": 36.5073676,
    "lon": -6.2791134
  },
  {
    "name": "El Viajero Del Merkao",
    "topic": "International, Mediterranean",
    "rating": 4.3,
    "city": "Cadiz",
    "address": ""
  },
  {
    "name": "Restaurante Arsenio Manila",
    "topic": "Mediterranean, European",
    "rating": 4.3,
    "city": "Cadiz",
    "address": "Arsenio Manila, Paseo Marítimo, Cortadura, Cádiz, Bahía de Cádiz, Cádiz, Andalucía, 11010, España",
    "lat": 36.5027322,
    "lon": -6.2759582
  },
  {
    "name": "Restaurante Alamar",
    "topic": "Seafood, Mediterranean",
    "rating": 4.3,
    "city": "Cadiz",
    "address": "Alamar, Calle Plocia, Santa María, Cádiz, Bahía de Cádiz, Cádiz, Andalucía, 11005, España",
    "lat": 36.5297347,
    "lon": -6.2913188
  },
  {
    "name": "Atxuri",
    "topic": "European, Spanish",
    "rating": 4.1,
    "city": "Cadiz",
    "address": "Restaurante Atxuri, Calle Suárez de Salazar, Santa María, Cádiz, Bahía de Cádiz, Cádiz, Andalucía, 11004, España",
    "lat": 36.5297113,
    "lon": -6.2915783
  },
  {
    "name": "Restaurante Café Royalty",
    "topic": "Spanish",
    "rating": 4.2,
    "city": "Cadiz",
    "address": ""
  },
  {
    "name": "Recreo Chico",
    "topic": "Mediterranean, European",
    "rating": 4.4,
    "city": "Cadiz",
    "address": "Recreo Chico, Calle Ancha, San Francisco, Cádiz, Bahía de Cádiz, Cádiz, Andalucía, 11003, España",
    "lat": 36.5340273,
    "lon": -6.2982762
  },
  {
    "name": "Beach Club Potito",
    "topic": "Seafood, Mediterranean",
    "rating": 4.3,
    "city": "Cadiz",
    "address": ""
  },
  {
    "name": "Chiringuito El Potito",
    "topic": "Spanish",
    "rating": 4.1,
    "city": "Cadiz",
    "address": ""
  },
  {
    "name": "Salicornia",
    "topic": "International, Mediterranean",
    "rating": 4.4,
    "city": "Cadiz",
    "address": "Salicornia, 2, Calle Plocia, Santa María, Cádiz, Bahía de Cádiz, Cádiz, Andalucía, 11005, España",
    "lat": 36.529948,
    "lon": -6.291655
  },
  {
    "name": "Casa Manteca",
    "topic": "Bar, Mediterranean",
    "rating": 4.3,
    "city": "Cadiz",
    "address": "Casa Manteca, 66, Calle Corralón de los Carros, La Viña, Distrito 4, Cádiz, Bahía de Cádiz, Cádiz, Andalucía, 11002, España",
    "lat": 36.5300525,
    "lon": -6.3035926
  },
  {
    "name": "Más Que La Cresta",
    "topic": "Mexican, Latin",
    "rating": 4.7,
    "city": "Cadiz",
    "address": "Más que la Cresta, 2B, Calle Novena, San Francisco, Cádiz, Bahía de Cádiz, Cádiz, Andalucía, 11001, España",
    "lat": 36.5328053,
    "lon": -6.2969437
  },
  {
    "name": "Meson La Cuesta",
    "topic": "Seafood, Spanish",
    "rating": 4.3,
    "city": "Cadiz",
    "address": "Meson la cuesta, 16, Calle Sacramento, El Pópulo, Cádiz, Bahía de Cádiz, Cádiz, Andalucía, 11001, España",
    "lat": 36.531454,
    "lon": -6.2972564
  },
  {
    "name": "Restaurante Balandro",
    "topic": "Mediterranean, European",
    "rating": 4.1,
    "city": "Cadiz",
    "address": "El Balandro, Paseo Alameda Clara Campoamor, San Carlos, Cádiz, Bahía de Cádiz, Cádiz, Andalucía, 11004, España",
    "lat": 36.5363229,
    "lon": -6.2957843
  },
  {
    "name": "Restaurante La Despensa",
    "topic": "Spanish",
    "rating": 4.1,
    "city": "Cadiz",
    "address": "La despensa, Avenida Alcalde Manuel de la Pinta, Santa María del Mar, Cádiz, Bahía de Cádiz, Cádiz, Andalucía, 11008, España",
    "lat": 36.5172822,
    "lon": -6.2855998
  },
  {
    "name": "Bar El Laurel",
    "topic": "Bar, Mediterranean",
    "rating": 4.3,
    "city": "Cadiz",
    "address": "Bar El Laurel, Calle Doctor Dacarrete, El Pópulo, Cádiz, Bahía de Cádiz, Cádiz, Andalucía, 11001, España",
    "lat": 36.5306662,
    "lon": -6.2958862
  },
  {
    "name": "Casa Rafael Vinos Y Tapas",
    "topic": "Seafood, Mediterranean",
    "rating": 4.5,
    "city": "Cadiz",
    "address": ""
  },
  {
    "name": "Contraseña by Código de Barra",
    "topic": "Mediterranean, Spanish",
    "rating": 4.5,
    "city": "Cadiz",
    "address": ""
  },
  {
    "name": "Bar El Merodio",
    "topic": "Mediterranean, Spanish",
    "rating": 4.4,
    "city": "Cadiz",
    "address": ""
  },
  {
    "name": "Dosbocados",
    "topic": "Fast Food, Mediterranean",
    "rating": 4.8,
    "city": "Cadiz",
    "address": ""
  },
  {
    "name": "Taberna la Sorpresa",
    "topic": "Mediterranean, Spanish",
    "rating": 4.3,
    "city": "Cadiz",
    "address": "Taberna La Sorpresa, 4, Calle Arbolí, San Juan, Cádiz, Bahía de Cádiz, Cádiz, Andalucía, 11005, España",
    "lat": 36.5303497,
    "lon": -6.2966174
  },
  {
    "name": "Septima Malta",
    "topic": "Bar, Mediterranean",
    "rating": 4.6,
    "city": "Cadiz",
    "address": "Séptima Malta, Calle San Antonio Abad, El Pópulo, Cádiz, Bahía de Cádiz, Cádiz, Andalucía, 11005, España",
    "lat": 36.5295183,
    "lon": -6.29325
  },
  {
    "name": "Bebo Los Vientos",
    "topic": "Mediterranean, European",
    "rating": 4.0,
    "city": "Cadiz",
    "address": "Bebo los vientos, Paseo Marítimo, Cortadura, Cádiz, Bahía de Cádiz, Cádiz, Andalucía, 11010, España",
    "lat": 36.5022833,
    "lon": -6.2760155
  },
  {
    "name": "Taberna El Tio de la Tiza",
    "topic": "Spanish, Healthy",
    "rating": 4.1,
    "city": "Cadiz",
    "address": ""
  },
  {
    "name": "Bar La Tabernita",
    "topic": "Bar, Mediterranean",
    "rating": 4.6,
    "city": "Cadiz",
    "address": ""
  },
  {
    "name": "On Egin Cocina Vasca",
    "topic": "Mediterranean, European",
    "rating": 4.4,
    "city": "Cadiz",
    "address": ""
  },
  {
    "name": "La Tapería de Columela",
    "topic": "Mediterranean, Spanish",
    "rating": 4.0,
    "city": "Cadiz",
    "address": ""
  },
  {
    "name": "Meson Casa Antonio",
    "topic": "Mediterranean, Spanish",
    "rating": 4.6,
    "city": "Cadiz",
    "address": ""
  },
  {
    "name": "Restaurante El Faro de Cádiz",
    "topic": "Seafood, Mediterranean",
    "rating": 4.1,
    "city": "Cadiz",
    "address": "Restaurante El Faro, Plaza del Faro, Barbate, La Janda, Cádiz, Andalucía, 11160, España",
    "lat": 36.1869861,
    "lon": -5.9240577
  },
  {
    "name": "Gadisushi",
    "topic": "Japanese, Sushi",
    "rating": 4.4,
    "city": "Cadiz",
    "address": ""
  },
  {
    "name": "Gades tapas",
    "topic": "Mediterranean, Spanish",
    "rating": 4.2,
    "city": "Cadiz",
    "address": ""
  },
  {
    "name": "La Tapita de Plata",
    "topic": "Bars & Pubs, Mediterranean",
    "rating": 4.8,
    "city": "Cadiz",
    "address": "La tapita de plata, 12, Calle Sacramento, El Pópulo, Cádiz, Bahía de Cádiz, Cádiz, Andalucía, 11001, España",
    "lat": 36.5312983,
    "lon": -6.2967411
  },
  {
    "name": "San Wich",
    "topic": "American",
    "rating": 4.5,
    "city": "Cadiz",
    "address": ""
  },
  {
    "name": "Bollywood Indian Restaurant Cadiz",
    "topic": "Indian, Asian",
    "rating": 4.4,
    "city": "Cadiz",
    "address": "Bollywood Indian Restaurant, Carretera de la Barrosa, Complejo Atlántico, La Barrosa, Chiclana de la Frontera, Bahía de Cádiz, Cádiz, Andalucía, 11139, España",
    "lat": 36.3697776,
    "lon": -6.1793021
  },
  {
    "name": "Beduino",
    "topic": "Mediterranean, Spanish",
    "rating": 4.6,
    "city": "Cadiz",
    "address": ""
  },
  {
    "name": "Taberna Almarcén",
    "topic": "Spanish, Healthy",
    "rating": 4.6,
    "city": "Cadiz",
    "address": ""
  },
  {
    "name": "Garum",
    "topic": "Mediterranean, European",
    "rating": 4.0,
    "city": "Cadiz",
    "address": "Garum, Calle Plocia, Santa María, Cádiz, Bahía de Cádiz, Cádiz, Andalucía, 11005, España",
    "lat": 36.5298587,
    "lon": -6.2915524
  },
  {
    "name": "Almanaque Casa de Comidas",
    "topic": "Mediterranean, Spanish",
    "rating": 4.2,
    "city": "Cadiz",
    "address": ""
  },
  {
    "name": "Venta El Casaron",
    "topic": "Spanish",
    "rating": 4.2,
    "city": "Cadiz",
    "address": "Venta El Casarón, A-2225, Población Rural de San José de Malcocinado y Los Badalejos, Los Badalejos, Medina Sidonia, La Janda, Cádiz, Andalucía, 11179, España",
    "lat": 36.3735948,
    "lon": -5.8755059
  },
  {
    "name": "Casa Pepe",
    "topic": "Bar, Cafe",
    "rating": 4.6,
    "city": "Cadiz",
    "address": "Casa Pepe, Calle Rosa, La Viña, Distrito 4, Cádiz, Bahía de Cádiz, Cádiz, Andalucía, 11002, España",
    "lat": 36.5311508,
    "lon": -6.3020749
  },
  {
    "name": "Abastos Multibar",
    "topic": "Mediterranean, European",
    "rating": 4.1,
    "city": "Cadiz",
    "address": ""
  },
  {
    "name": "Tataki Sushi & Gastrobar",
    "topic": "Japanese, Sushi",
    "rating": 4.2,
    "city": "Cadiz",
    "address": ""
  },
  {
    "name": "Feng Shui Street",
    "topic": "Japanese, Sushi",
    "rating": 4.4,
    "city": "Cadiz",
    "address": ""
  },
  {
    "name": "Aupa Kádi",
    "topic": "Mediterranean, Spanish",
    "rating": 4.9,
    "city": "Cadiz",
    "address": ""
  },
  {
    "name": "El Callejon",
    "topic": "Mediterranean, Spanish",
    "rating": 4.5,
    "city": "Cadiz",
    "address": "El Callejón, Villamartín, Sierra de Cádiz, Cádiz, Andalucía, 11660, España",
    "lat": 36.8013307,
    "lon": -5.583903
  },
  {
    "name": "Tirabuzon",
    "topic": "Mediterranean, European",
    "rating": 4.0,
    "city": "Cadiz",
    "address": "Tirabuźon, Avenida Alcalde Manuel de la Pinta, Santa María del Mar, Cádiz, Bahía de Cádiz, Cádiz, Andalucía, 11008, España",
    "lat": 36.5178452,
    "lon": -6.2862318
  },
  {
    "name": "La Fragua",
    "topic": "Steakhouse, Mediterranean",
    "rating": 4.4,
    "city": "Cadiz",
    "address": "Plaza La Fragua, Polígono de San Telmo, Jerez de la Frontera, Campiña de Jerez, Cádiz, Andalucía, 11401, España",
    "lat": 36.6729575,
    "lon": -6.1276284
  },
  {
    "name": "Casa Canovas Restaurant",
    "topic": "Italian, Mediterranean",
    "rating": 4.5,
    "city": "Cadiz",
    "address": ""
  },
  {
    "name": "El Boliche",
    "topic": "Italian, Pizza",
    "rating": 4.8,
    "city": "Cadiz",
    "address": ""
  },
  {
    "name": "Sabores De Belgica",
    "topic": "French, Belgian",
    "rating": 5.0,
    "city": "Cadiz",
    "address": ""
  },
  {
    "name": "Mini Bar",
    "topic": "Seafood, Spanish",
    "rating": 4.4,
    "city": "Cadiz",
    "address": "Mini Bar, 5, Calle Doctor Dacarrete, El Pópulo, Cádiz, Bahía de Cádiz, Cádiz, Andalucía, 11001, España",
    "lat": 36.5311443,
    "lon": -6.2966875
  },
  {
    "name": "Gutini",
    "topic": "International, Mediterranean",
    "rating": 5.0,
    "city": "Cadiz",
    "address": ""
  },
  {
    "name": "El Malagueno",
    "topic": "Bar, Mediterranean",
    "rating": 4.1,
    "city": "Cadiz",
    "address": "El Malagueño, Calle Nécora, Urbanización Aretusa Luz, Zahara de los Atunes, Barbate, La Janda, Cádiz, Andalucía, 11393, España",
    "lat": 36.1357183,
    "lon": -5.8448807
  },
  {
    "name": "meson de las americas",
    "topic": "Latin, Spanish",
    "rating": 4.2,
    "city": "Cadiz",
    "address": ""
  },
  {
    "name": "Restaurante La Vendimia",
    "topic": "Mediterranean, Spanish",
    "rating": 4.3,
    "city": "Cadiz",
    "address": "La vendimia, Paseo Marítimo, Cortadura, Cádiz, Bahía de Cádiz, Cádiz, Andalucía, 11010, España",
    "lat": 36.5003187,
    "lon": -6.2745705
  },
  {
    "name": "El Faro De La Laguna",
    "topic": "Mediterranean, Spanish",
    "rating": 4.8,
    "city": "Cadiz",
    "address": ""
  },
  {
    "name": "Vinos y Tapas Sur",
    "topic": "Mediterranean, Spanish",
    "rating": 4.1,
    "city": "Cadiz",
    "address": ""
  },
  {
    "name": "Trasversal Restobar",
    "topic": "Bar, Cafe",
    "rating": 4.7,
    "city": "Cadiz",
    "address": ""
  },
  {
    "name": "Las Nieves",
    "topic": "Mediterranean, European",
    "rating": 4.3,
    "city": "Cadiz",
    "address": "Las Nieves, Sudamérica, El Puerto de Santa María, Bahía de Cádiz, Cádiz, Andalucía, 11500, España",
    "lat": 36.6109586,
    "lon": -6.2313941
  },
  {
    "name": "Taberna La Carbonera",
    "topic": "Mediterranean, Spanish",
    "rating": 4.1,
    "city": "Cadiz",
    "address": "Taberna La Carbonera, Calle San Fernando, El Pópulo, Cádiz, Bahía de Cádiz, Cádiz, Andalucía, 11005, España",
    "lat": 36.5299177,
    "lon": -6.2935152
  },
  {
    "name": "Bohemia",
    "topic": "Mediterranean, Spanish",
    "rating": 4.6,
    "city": "Cadiz",
    "address": "Bohemia, Avenida Ana de Viya, Trille, Cádiz, Bahía de Cádiz, Cádiz, Andalucía, 11009, España",
    "lat": 36.5102047,
    "lon": -6.2789931
  },
  {
    "name": "Bar Nuevo Folgar",
    "topic": "Mediterranean, European",
    "rating": 4.8,
    "city": "Cadiz",
    "address": "Nuevo Folgar, 1, Cuesta de la Jabonería, Santa María, Cádiz, Bahía de Cádiz, Cádiz, Andalucía, 11005, España",
    "lat": 36.5290786,
    "lon": -6.2926353
  },
  {
    "name": "Nuevo Burger Brooklyn",
    "topic": "American, Fast Food",
    "rating": 4.6,
    "city": "Cadiz",
    "address": ""
  }
]