[
  {
    "name": "El Pimentón",
    "topic": "Mediterranean, European",
    "rating": 4.2,
    "city": "Seville",
    "address": ""
  },
  {
    "name": "Terraviva",
    "topic": "Mediterranean, Spanish",
    "rating": 4.0,
    "city": "Seville",
    "address": ""
  },
  {
    "name": "Alimentari E Diversi",
    "topic": "Italian, Pizza",
    "rating": 4.9,
    "city": "Seville",
    "address": ""
  },
  {
    "name": "Fatouch",
    "topic": "Lebanese, Mediterranean",
    "rating": 4.9,
    "city": "Seville",
    "address": "Fatouch, 33, Calle Feria, Feria, Casco Antiguo, Sevilla, Andalucía, 41003, España",
    "lat": 37.3970819,
    "lon": -5.9913058
  },
  {
    "name": "Gascona",
    "topic": "Seafood, Mediterranean",
    "rating": 4.9,
    "city": "Seville",
    "address": ""
  },
  {
    "name": "Bodega Palo Santo",
    "topic": "Mediterranean, European",
    "rating": 4.7,
    "city": "Seville",
    "address": "Bodega Palo Santo, 5, Plaza de la Gavidia, Encarnación-Regina, Casco Antiguo, Sevilla, Andalucía, 41002, España",
    "lat": 37.3950484,
    "lon": -5.9967621
  },
  {
    "name": "MareaViva",
    "topic": "Mediterranean, European",
    "rating": 4.9,
    "city": "Seville",
    "address": ""
  },
  {
    "name": "Tropiqual",
    "topic": "Steakhouse, International",
    "rating": 4.7,
    "city": "Seville",
    "address": "Tropiqual, Plaza de la Encarnación, Encarnación-Regina, Casco Antiguo, Sevilla, Andalucía, 41003, España",
    "lat": 37.3933523,
    "lon": -5.992302
  },
  {
    "name": "La Santa",
    "topic": "Bar, Cafe",
    "rating": 4.8,
    "city": "Seville",
    "address": "La Santa, La Campana, Sevilla, Andalucía, 41429, España",
    "lat": 37.5289993,
    "lon": -5.4070271
  },
  {
    "name": "Il Ristorantino Dell' Avvocato",
    "topic": "Italian, Pizza",
    "rating": 4.9,
    "city": "Seville",
    "address": ""
  },
  {
    "name": "Alimentari",
    "topic": "Italian, Pizza",
    "rating": 4.8,
    "city": "Seville",
    "address": "Restaurante Alimentari, 21, Calle Bartolomé de Medina, San Bernardo, Nervión, Sevilla, Andalucía, 41004, España",
    "lat": 37.3840987,
    "lon": -5.9846149
  },
  {
    "name": "Infanta Sevilla",
    "topic": "Mediterranean, European",
    "rating": 4.9,
    "city": "Seville",
    "address": "Infanta Sevilla, 27, Avenida de Grecia, Huertas de San Gonzalo, Elcano-Los Bermejales, Distrito Bellavista-La Palmera, Sevilla, Andalucía, 41012, España",
    "lat": 37.3471706,
    "lon": -5.9832631
  },
  {
    "name": "La Comilona",
    "topic": "Mediterranean, Spanish",
    "rating": 4.8,
    "city": "Seville",
    "address": ""
  },
  {
    "name": "Islamorada Tapas Bar",
    "topic": "Spanish, Fusion",
    "rating": 4.8,
    "city": "Seville",
    "address": "Islamorada Tapas Bar, Calle Francisco López Borda, El Arenal, Casco Antiguo, Sevilla, Andalucía, 41001, España",
    "lat": 37.3856347,
    "lon": -5.9958018
  },
  {
    "name": "Bollywood Indian Restaurant Sevilla",
    "topic": "Indian, Healthy",
    "rating": 4.8,
    "city": "Seville",
    "address": ""
  },
  {
    "name": "Royalti",
    "topic": "Mediterranean, Spanish",
    "rating": 4.6,
    "city": "Seville",
    "address": ""
  },
  {
    "name": "Sibuya Urban Sushi Bar Sevilla",
    "topic": "Japanese, Bar",
    "rating": 4.9,
    "city": "Seville",
    "address": "Urban Sushi Bar Sibuya, Calle Rafael Alberti, La Mascareta, Tomares, Sevilla, Andalucía, 41940, España",
    "lat": 37.3694352,
    "lon": -6.040766
  },
  {
    "name": "Restaurante & Tapas El Sella",
    "topic": "Mediterranean, Spanish",
    "rating": 4.9,
    "city": "Seville",
    "address": "Restaurante y Tapas El Sella, Calle Fabié, Triana Casco Antiguo, Triana, Sevilla, Andalucía, 41010, España",
    "lat": 37.3847823,
    "lon": -6.0027284
  },
  {
    "name": "Vuela Tapas & Cocktail Bar",
    "topic": "Mediterranean, Spanish",
    "rating": 4.9,
    "city": "Seville",
    "address": ""
  },
  {
    "name": "Abaceria del Postigo",
    "topic": "Mediterranean, Spanish",
    "rating": 4.9,
    "city": "Seville",
    "address": "Abaceria del Postigo, Calle Tomás de Ybarra, El Arenal, Casco Antiguo, Sevilla, Andalucía, 41001, España",
    "lat": 37.3850174,
    "lon": -5.9946508
  },
  {
    "name": "La Sede",
    "topic": "Mediterranean, Spanish",
    "rating": 4.9,
    "city": "Seville",
    "address": "La Sede, 1, Calle Regina, Encarnación-Regina, Casco Antiguo, Sevilla, Andalucía, 41003, España",
    "lat": 37.3939306,
    "lon": -5.9918152
  },
  {
    "name": "Donaire Azabache (Polavieja)",
    "topic": "Mediterranean, Spanish",
    "rating": 4.8,
    "city": "Seville",
    "address": ""
  },
  {
    "name": "Acento - Social Eatery",
    "topic": "International, Mediterranean",
    "rating": 4.8,
    "city": "Seville",
    "address": ""
  },
  {
    "name": "La Carnívora Burger",
    "topic": "Burgers",
    "rating": 4.9,
    "city": "Seville",
    "address": ""
  },
  {
    "name": "Donaire Azabache - Archivos de Indias",
    "topic": "Mediterranean, European",
    "rating": 4.7,
    "city": "Seville",
    "address": ""
  },
  {
    "name": "Street Food Burger Bermejales",
    "topic": "American, Fast Food",
    "rating": 4.8,
    "city": "Seville",
    "address": ""
  },
  {
    "name": "Restaurante BraXas",
    "topic": "Steakhouse, International",
    "rating": 4.8,
    "city": "Seville",
    "address": "Braxas, Calle Almirante Apodaca, Encarnación-Regina, Casco Antiguo, Sevilla, Andalucía, 41003, España",
    "lat": 37.3928818,
    "lon": -5.9889219
  },
  {
    "name": "L' Orangier Cocina Casera y Tradicional",
    "topic": "Spanish, Dining bars",
    "rating": 4.7,
    "city": "Seville",
    "address": ""
  },
  {
    "name": "Atávico Gastronomía Ancestral",
    "topic": "Mediterranean, Spanish",
    "rating": 4.8,
    "city": "Seville",
    "address": ""
  },
  {
    "name": "Taberna de La Dehesa",
    "topic": "Spanish",
    "rating": 4.7,
    "city": "Seville",
    "address": "Taberna de la Dehesa, 2, Calle Luis de Morales, La Buhaira, Nervión, Sevilla, Andalucía, 41018, España",
    "lat": 37.3863313,
    "lon": -5.9727216
  },
  {
    "name": "Bar Triana",
    "topic": "Bar, Mediterranean",
    "rating": 4.7,
    "city": "Seville",
    "address": "Bar Triana., 73, Calle Castilla, Triana Casco Antiguo, Triana, Sevilla, Andalucía, 41010, España",
    "lat": 37.3877721,
    "lon": -6.0064855
  },
  {
    "name": "Arabesca Restaurant",
    "topic": "Lebanese, Moroccan",
    "rating": 4.8,
    "city": "Seville",
    "address": "Arabesca, Calle San Fernando, Santa Cruz, Casco Antiguo, Sevilla, Andalucía, 41004, España",
    "lat": 37.3819504,
    "lon": -5.9909458
  },
  {
    "name": "Restaurante La Casapuerta",
    "topic": "Mediterranean, European",
    "rating": 4.7,
    "city": "Seville",
    "address": "La Casapuerta, Calle San Roque, Museo, Casco Antiguo, Sevilla, Andalucía, 41001, España",
    "lat": 37.3915991,
    "lon": -5.9991085
  },
  {
    "name": "Ropavieja",
    "topic": "Mediterranean, European",
    "rating": 4.6,
    "city": "Seville",
    "address": ""
  },
  {
    "name": "Il Mago Pancione",
    "topic": "Italian, Pizza",
    "rating": 4.9,
    "city": "Seville",
    "address": ""
  },
  {
    "name": "Condendê",
    "topic": "Latin, Mediterranean",
    "rating": 4.8,
    "city": "Seville",
    "address": "Condendê, Plaza Calderón de la Barca, Feria, Casco Antiguo, Sevilla, Andalucía, 41003, España",
    "lat": 37.399468,
    "lon": -5.991109
  },
  {
    "name": "Al Wadi",
    "topic": "Moroccan",
    "rating": 4.7,
    "city": "Seville",
    "address": "Al Wadi, Calle Jimios, El Arenal, Casco Antiguo, Sevilla, Andalucía, 41001, España",
    "lat": 37.3867884,
    "lon": -5.9948054
  },
  {
    "name": "Bendala Brasería",
    "topic": "Mediterranean, Spanish",
    "rating": 4.7,
    "city": "Seville",
    "address": "Bendala Brasería, 4, Paseo Catalina de Ribera, San Bartolomé, Casco Antiguo, Sevilla, Andalucía, 41004, España",
    "lat": 37.3854867,
    "lon": -5.9866812
  },
  {
    "name": "Favorito Mi Lugar",
    "topic": "Spanish, Fusion",
    "rating": 4.7,
    "city": "Seville",
    "address": ""
  },
  {
    "name": "Bocatti di Cardinale",
    "topic": "Mediterranean, Spanish",
    "rating": 4.7,
    "city": "Seville",
    "address": ""
  },
  {
    "name": "Mokambo | Plaza Nueva",
    "topic": "Healthy, International",
    "rating": 4.9,
    "city": "Seville",
    "address": ""
  },
  {
    "name": "Vega 10",
    "topic": "Mediterranean, European",
    "rating": 4.6,
    "city": "Seville",
    "address": "Vega 10, Calle Rosario Vega, Triana Casco Antiguo, Triana, Sevilla, Andalucía, 41010, España",
    "lat": 37.3807613,
    "lon": -5.9995079
  },
  {
    "name": "Ta'Kool Restaurant",
    "topic": "Mexican, Southwestern",
    "rating": 4.8,
    "city": "Seville",
    "address": ""
  },
  {
    "name": "Da Pino",
    "topic": "Italian, Pizza",
    "rating": 4.6,
    "city": "Seville",
    "address": "Pino Montano, Distrito Norte, Sevilla, Andalucía, España",
    "lat": 37.4234233,
    "lon": -5.965486
  },
  {
    "name": "Bistro Los Tulipanes",
    "topic": "Dutch, International",
    "rating": 4.8,
    "city": "Seville",
    "address": ""
  },
  {
    "name": "Versátil mi lugar",
    "topic": "Bar, Mediterranean",
    "rating": 4.7,
    "city": "Seville",
    "address": ""
  },
  {
    "name": "Betis 7 Triana Experience",
    "topic": "Mediterranean, European",
    "rating": 4.6,
    "city": "Seville",
    "address": ""
  },
  {
    "name": "El Rincon De Beirut",
    "topic": "Lebanese, Healthy",
    "rating": 4.7,
    "city": "Seville",
    "address": "El Rincón de Beirut, 21, Calle San Fernando, Santa Cruz, Casco Antiguo, Sevilla, Andalucía, 41004, España",
    "lat": 37.382018,
    "lon": -5.9910428
  },
  {
    "name": "Muelle 21 Restaurante",
    "topic": "Mediterranean, Spanish",
    "rating": 4.7,
    "city": "Seville",
    "address": ""
  },
  {
    "name": "La Madriguera De Mai",
    "topic": "Mediterranean, Spanish",
    "rating": 4.8,
    "city": "Seville",
    "address": "La Madriguera de Mai, Calle Arrayán, Feria, Casco Antiguo, Sevilla, Andalucía, 41002, España",
    "lat": 37.3994151,
    "lon": -5.9893016
  },
  {
    "name": "La Bartola",
    "topic": "Bar, Mediterranean",
    "rating": 4.6,
    "city": "Seville",
    "address": "La Bartola, 24, Calle San José, San Bartolomé, Casco Antiguo, Sevilla, Andalucía, 41004, España",
    "lat": 37.386815,
    "lon": -5.9879857
  },
  {
    "name": "La Malvaloca",
    "topic": "Mediterranean, Spanish",
    "rating": 4.7,
    "city": "Seville",
    "address": "La Malvaloca, Plaza de la Encarnación, Encarnación-Regina, Casco Antiguo, Sevilla, Andalucía, 41003, España",
    "lat": 37.3922149,
    "lon": -5.9921768
  },
  {
    "name": "La Cayetana Bistro Andalú",
    "topic": "Mediterranean, Spanish",
    "rating": 4.6,
    "city": "Seville",
    "address": ""
  },
  {
    "name": "Cristina-Bistro",
    "topic": "Spanish",
    "rating": 4.5,
    "city": "Seville",
    "address": ""
  },
  {
    "name": "La Escalona",
    "topic": "Spanish, Healthy",
    "rating": 4.6,
    "city": "Seville",
    "address": "La Escalona, Calle Alcaicería de la Loza, Alfalfa, Casco Antiguo, Sevilla, Andalucía, 41004, España",
    "lat": 37.3903364,
    "lon": -5.9910578
  },
  {
    "name": "Patio San Eloy - Regina",
    "topic": "Bar, Mediterranean",
    "rating": 4.7,
    "city": "Seville",
    "address": "Patio San Eloy, 14, Calle Alhóndiga, Encarnación-Regina, Casco Antiguo, Sevilla, Andalucía, 41003, España",
    "lat": 37.3929845,
    "lon": -5.9885279
  },
  {
    "name": "Petra",
    "topic": "Mediterranean, European",
    "rating": 4.7,
    "city": "Seville",
    "address": "Petra, Calle Alfalfa, Alfalfa, Casco Antiguo, Sevilla, Andalucía, 41004, España",
    "lat": 37.3901562,
    "lon": -5.9902568
  },
  {
    "name": "Masakali Pizza Cristo de Burgos",
    "topic": "Italian, Pizza",
    "rating": 4.9,
    "city": "Seville",
    "address": ""
  },
  {
    "name": "SedeMéxico - Restaurante Mexicano Sevilla",
    "topic": "Mexican",
    "rating": 4.7,
    "city": "Seville",
    "address": ""
  },
  {
    "name": "La Industrial Los Remedios",
    "topic": "Cafe, Mediterranean",
    "rating": 4.8,
    "city": "Seville",
    "address": "Carretera de la Esclusa, Tablada, Los Remedios, Sevilla, Andalucía, 41120, España",
    "lat": 37.3397821,
    "lon": -6.0030029
  },
  {
    "name": "Puratasca",
    "topic": "Mediterranean, European",
    "rating": 4.5,
    "city": "Seville",
    "address": "Puratasca, 5, Calle Numancia, Nucleo Residencial Josefa Ramos de la Orden, Triana, Sevilla, Andalucía, 41010, España",
    "lat": 37.3866266,
    "lon": -6.0102218
  },
  {
    "name": "Palo Cortao",
    "topic": "European, Contemporary",
    "rating": 4.6,
    "city": "Seville",
    "address": "Palo cortao, 2, Calle Castelar, El Arenal, Casco Antiguo, Sevilla, Andalucía, 41001, España",
    "lat": 37.3863849,
    "lon": -5.9962066
  },
  {
    "name": "Hops and Dreams",
    "topic": "Brew Pub, Bar",
    "rating": 4.6,
    "city": "Seville",
    "address": ""
  },
  {
    "name": "La Linterna Ciega",
    "topic": "Brew Pub, Bar",
    "rating": 4.7,
    "city": "Seville",
    "address": ""
  },
  {
    "name": "Las Tablas Sevilla",
    "topic": "Bar, Mediterranean",
    "rating": 4.6,
    "city": "Seville",
    "address": "Las Tablas, Lebrija, Sevilla, Andalucía, España",
    "lat": 37.0306348,
    "lon": -6.1163447
  },
  {
    "name": "El Librero Tapas Y Quesos",
    "topic": "Mediterranean, European",
    "rating": 4.4,
    "city": "Seville",
    "address": ""
  },
  {
    "name": "Maquila Bar",
    "topic": "Mediterranean, European",
    "rating": 4.5,
    "city": "Seville",
    "address": "Maquila, 4, Calle Delgado, Feria, Casco Antiguo, Sevilla, Andalucía, 41002, España",
    "lat": 37.396074,
    "lon": -5.9944684
  },
  {
    "name": "Bacao",
    "topic": "French, Steakhouse",
    "rating": 4.5,
    "city": "Seville",
    "address": ""
  },
  {
    "name": "El Pasaje Santa María la Blanca",
    "topic": "Mediterranean, European",
    "rating": 4.4,
    "city": "Seville",
    "address": ""
  },
  {
    "name": "El Traga",
    "topic": "Mediterranean, European",
    "rating": 4.5,
    "city": "Seville",
    "address": "El Traga, 6, Calle Águilas, Alfalfa, Casco Antiguo, Sevilla, Andalucía, 41004, España",
    "lat": 37.3898244,
    "lon": -5.9892675
  },
  {
    "name": "Street Food Burger Viapol",
    "topic": "American, Fast Food",
    "rating": 4.7,
    "city": "Seville",
    "address": ""
  },
  {
    "name": "Restaurante Eslava",
    "topic": "Mediterranean, European",
    "rating": 4.6,
    "city": "Seville",
    "address": ""
  },
  {
    "name": "Restaurante Az-Zait",
    "topic": "Mediterranean, European",
    "rating": 4.5,
    "city": "Seville",
    "address": "Az-Zait, 1, Plaza de San Lorenzo, San Lorenzo, Casco Antiguo, Sevilla, Andalucía, 41002, España",
    "lat": 37.3968228,
    "lon": -5.9964653
  },
  {
    "name": "Tipico Barra De Tapas",
    "topic": "Bar, Mediterranean",
    "rating": 4.6,
    "city": "Seville",
    "address": ""
  },
  {
    "name": "Restaurante Al Sultan - La Alameda",
    "topic": "Lebanese, Moroccan",
    "rating": 4.7,
    "city": "Seville",
    "address": ""
  },
  {
    "name": "Bar Alfalfa",
    "topic": "Bar, Mediterranean",
    "rating": 4.5,
    "city": "Seville",
    "address": "Bar Alfalfa, 1, Calle Candilejo, Alfalfa, Casco Antiguo, Sevilla, Andalucía, 41004, España",
    "lat": 37.3899821,
    "lon": -5.9901613
  },
  {
    "name": "El Pasaje Tapas",
    "topic": "International, Mediterranean",
    "rating": 4.5,
    "city": "Seville",
    "address": ""
  },
  {
    "name": "La Cochera del Abuelo",
    "topic": "International, Mediterranean",
    "rating": 4.7,
    "city": "Seville",
    "address": "La Cochera del Abuelo, 2, Calle Álvaro de Bazán, San Lorenzo, Casco Antiguo, Sevilla, Andalucía, 41002, España",
    "lat": 37.4010481,
    "lon": -5.9964491
  },
  {
    "name": "Vineria San Telmo",
    "topic": "International, Mediterranean",
    "rating": 4.4,
    "city": "Seville",
    "address": "Vinería San Telmo, Paseo Catalina de Ribera, San Bartolomé, Casco Antiguo, Sevilla, Andalucía, 41004, España",
    "lat": 37.3854551,
    "lon": -5.986635
  },
  {
    "name": "De La O",
    "topic": "Mediterranean, Spanish",
    "rating": 4.5,
    "city": "Seville",
    "address": "Plaza de toros La Maestranza de Sevilla, 12, Paseo de Cristóbal Colón, El Arenal, Casco Antiguo, Sevilla, Andalucía, 41001, España",
    "lat": 37.3859079,
    "lon": -5.9989192
  },
  {
    "name": "Milonga's Restaurante Argentino - Nervión",
    "topic": "Steakhouse, Latin",
    "rating": 4.5,
    "city": "Seville",
    "address": ""
  },
  {
    "name": "Mechela",
    "topic": "Mediterranean, European",
    "rating": 4.5,
    "city": "Seville",
    "address": "Mechela, Calle Bailén, Museo, Casco Antiguo, Sevilla, Andalucía, 41001, España",
    "lat": 37.3913903,
    "lon": -5.9994874
  },
  {
    "name": "conTenedor",
    "topic": "Mediterranean, European",
    "rating": 4.4,
    "city": "Seville",
    "address": "ConTenedor, 50, Calle San Luis, San Julián, Casco Antiguo, Sevilla, Andalucía, 41003, España",
    "lat": 37.39842,
    "lon": -5.9879244
  },
  {
    "name": "Uno de Delicias",
    "topic": "Bar, Spanish",
    "rating": 4.5,
    "city": "Seville",
    "address": "Uno de Delicias, 1, Paseo de las Delicias, Santa Cruz, Casco Antiguo, Sevilla, Andalucía, 41001, España",
    "lat": 37.3821263,
    "lon": -5.9955157
  },
  {
    "name": "Restaurante La Salá",
    "topic": "Peruvian, Latin",
    "rating": 4.7,
    "city": "Seville",
    "address": ""
  },
  {
    "name": "Catalina Casa de Comidas",
    "topic": "Mediterranean, European",
    "rating": 4.5,
    "city": "Seville",
    "address": ""
  },
  {
    "name": "Maestro Marcelino",
    "topic": "Mediterranean, European",
    "rating": 4.6,
    "city": "Seville",
    "address": "Maestro Marcelino, 9, Calle Hernando Colón, Santa Cruz, Casco Antiguo, Sevilla, Andalucía, 41001, España",
    "lat": 37.3875614,
    "lon": -5.9934648
  },
  {
    "name": "La Cantina Mexicana",
    "topic": "Mexican, Latin",
    "rating": 4.5,
    "city": "Seville",
    "address": ""
  },
  {
    "name": "Alcázar - Andalusí Tapas",
    "topic": "Mediterranean, European",
    "rating": 4.5,
    "city": "Seville",
    "address": ""
  },
  {
    "name": "El Burladero",
    "topic": "Mediterranean, European",
    "rating": 4.5,
    "city": "Seville",
    "address": "El Burladero, 90, Calle Gitanito de Triana, Tablada, Los Remedios, Sevilla, Andalucía, 41011, España",
    "lat": 37.3710994,
    "lon": -6.0002166
  },
  {
    "name": "La Barca de Calderón",
    "topic": "Mediterranean, Spanish",
    "rating": 4.6,
    "city": "Seville",
    "address": "041 Plaza Calderón de la Barca, Plaza Calderón de la Barca, Feria, Casco Antiguo, Sevilla, Andalucía, 41002, España",
    "lat": 37.3994884,
    "lon": -5.9909861
  },
  {
    "name": "La Bodega de la Alfalfa",
    "topic": "Bar, Mediterranean",
    "rating": 4.4,
    "city": "Seville",
    "address": "La Bodega, Calle Alfalfa, Alfalfa, Casco Antiguo, Sevilla, Andalucía, 41004, España",
    "lat": 37.3900571,
    "lon": -5.9903014
  },
  {
    "name": "Blanca Paloma",
    "topic": "Mediterranean, Spanish",
    "rating": 4.5,
    "city": "Seville",
    "address": "Blanca Paloma, 51, Calle San Jacinto, Triana Este, Triana, Sevilla, Andalucía, 41010, España",
    "lat": 37.3830762,
    "lon": -6.005912
  }
]